,State,City,Payment,location,geo,lat,lon
0,AK,ANCHOR POINT,113750,"ANCHOR POINT, AK, United States","Anchor Point, Kenai Peninsula, Alaska, United States",59.7766667,-151.8313889
1,AK,ANCHORAGE,85994079,"ANCHORAGE, AK, United States","Anchorage, Alaska, 99501-2118, United States",61.2163129,-149.894852
3,AK,BARROW,6445000,"BARROW, AK, United States","Point Barrow, North Slope, Alaska, United States",71.387113,-156.4809618
4,AK,BELLEVUE,61191,"BELLEVUE, AK, United States","Bellevue Loop, Pionner Square, Anchorage, Alaska, 99515, Anchorage",61.1130739,-149.9119347
5,AK,BETHEL,11568120,"BETHEL, AK, United States","Bethel, Unorganized Borough, Alaska, 99559, United States",60.7922222,-161.7558333
6,AK,BIG LAKE,26092,"BIG LAKE, AK, United States","Big Lake, Matanuska-Susitna, Alaska, United States",61.53416735,-149.93947126173936
7,AK,CHISTOCHINA,417,"CHISTOCHINA, AK, United States","Chistochina, Unorganized Borough, Alaska, United States",62.579899,-144.91162916175654
8,AK,COOPER LANDING,133,"COOPER LANDING, AK, United States","Cooper Landing, Kenai Peninsula, Alaska, United States",60.4952185,-149.84784950083542
9,AK,COPPER CENTER,255867,"COPPER CENTER, AK, United States","Copper Center, Unorganized Borough, Alaska, United States",61.9817167,-145.34774426791748
10,AK,CORDOVA,3805624,"CORDOVA, AK, United States","Cordova, Unorganized Borough, Alaska, 99574, United States",60.5439444,-145.75891
11,AK,CRAIG,19050,"CRAIG, AK, United States","Craig, Unorganized Borough, Alaska, 99921, United States",55.4763889,-133.1483333
12,AK,DELTA JUNCTION,231147,"DELTA JUNCTION, AK, United States","Delta Junction, Unorganized Borough, Alaska, United States",64.0373478,-145.732157
13,AK,DENALI PARK,6128,"DENALI PARK, AK, United States","Denali State Park, Matanuska-Susitna, Alaska, United States",62.75367305,-149.99974151737248
14,AK,DILLINGHAM,6395575,"DILLINGHAM, AK, United States","Dillingham, Alaska, United States",59.0397222,-158.4575
15,AK,DUTCH HARBOR,88691,"DUTCH HARBOR, AK, United States","Dutch Harbor, Unalaska, Unorganized Borough, Alaska, 99692, United States",53.8867533,-166.5418001
16,AK,EAGLE RIVER,1145507,"EAGLE RIVER, AK, United States","Eagle River, Wrangell, Alaska, United States",56.0780236,-131.4929068
17,AK,FAIRBANKS,30226376,"FAIRBANKS, AK, United States","Fairbanks, Fairbanks North Star, Alaska, United States",64.82897449999999,-147.66991691593407
18,AK,FARIBANKS,70354,"FARIBANKS, AK, United States","Faribanks World Tang Soo Do Association, 695, Chena Pump Road, Fairbanks North Star, Alaska, 99709, United States",64.8482957,-147.8677306
19,AK,FORT YUKON,540304,"FORT YUKON, AK, United States","Fort Yukon, Unorganized Borough, Alaska, United States",66.5647222,-145.273888
20,AK,GIRDWOOD,182324,"GIRDWOOD, AK, United States","Girdwood, Anchorage, Alaska, 99587, Anchorage",60.9632459,-149.1336969
21,AK,GLENNALLEN,305405,"GLENNALLEN, AK, United States","Glennallen, Copper River, Alaska, United States",62.1371485,-145.82205347328326
22,AK,GUSTAVUS,354,"GUSTAVUS, AK, United States","Gustavus, Unorganized Borough, Alaska, 99826, United States",58.4128377,-135.7375654
23,AK,HAINES,18632,"HAINES, AK, United States","Haines, Alaska, United States",59.0831232,-135.3430573
24,AK,HEALY,2293,"HEALY, AK, United States","Healy, Denali, Alaska, United States",63.8704918,-148.995848
25,AK,HOMER,8058990,"HOMER, AK, United States","Homer, Kenai Peninsula, Alaska, United States",59.639059,-151.53168855491697
26,AK,HOONAH,1024,"HOONAH, AK, United States","Hoonah, Unorganized Borough, Alaska, 99829, United States",58.1096843,-135.4434557
28,AK,JUNEAU,31464607,"JUNEAU, AK, United States","Juneau, Alaska, United States",58.3019496,-134.419734
29,AK,KENAI,1584574,"KENAI, AK, United States","Kenai, Kenai Peninsula, Alaska, United States",60.5544444,-151.258333
30,AK,KENNY LAKE,72,"KENNY LAKE, AK, United States","Kenny Lake, Unorganized Borough, Alaska, United States",61.7371765,-144.9420677
31,AK,KETCHIKAN,1535843,"KETCHIKAN, AK, United States","Ketchikan, Ketchikan Gateway, Alaska, 99901, United States",55.3430696,-131.6466819
32,AK,KLAWOCK,4716,"KLAWOCK, AK, United States","Klawock, Unorganized Borough, Alaska, 99925, United States",55.5523788,-133.0970585
33,AK,KODIAK,3361566,"KODIAK, AK, United States","Kodiak, Kodiak Island, Alaska, United States",57.79,-152.4072222
34,AK,KOTZEBUE,7042557,"KOTZEBUE, AK, United States","Kotzebue, Northwest Arctic, Alaska, United States",66.8982057,-162.5977621
35,AK,METLAKATLA,489305,"METLAKATLA, AK, United States","Metlakatla, Unorganized Borough, Alaska, 99926, United States",55.119358000000005,-131.57474171012845
36,AK,NAKNEK,114953,"NAKNEK, AK, United States","Naknek, Bristol Bay, Alaska, 99670, United States",58.7283333,-157.0138889
37,AK,NAUKATI,27238,"NAUKATI, AK, United States","Naukati Bay, Unorganized Borough, Alaska, United States",55.8703029,-133.2070403
38,AK,NENANA,1940,"NENANA, AK, United States","Nenana, Unorganized Borough, Alaska, United States",64.5639068,-149.093474
39,AK,NINILCHIK,41818,"NINILCHIK, AK, United States","Ninilchik, Kenai Peninsula, Alaska, 99639, United States",60.0506444,-151.6661531
40,AK,NOME,10580545,"NOME, AK, United States","Nome, Alaska, United States",64.4989922,-165.39879944316317
41,AK,NORTH POLE,96452,"NORTH POLE, AK, United States","North Pole, Fairbanks North Star, Alaska, United States",64.750997,-147.349319
42,AK,PALMER,1165043,"PALMER, AK, United States","Palmer, Matanuska-Susitna, Alaska, United States",61.5995703,-149.11109
43,AK,PETERSBURG,4029081,"PETERSBURG, AK, United States","Petersburg, Petersburg Borough, Alaska, 99833, United States",56.8127965,-132.95547
44,AK,PORT GRAHAM,554258,"PORT GRAHAM, AK, United States","Port Graham, Kenai Peninsula, Alaska, United States",59.339569,-151.8450553205832
45,AK,SELDOVIA,401419,"SELDOVIA, AK, United States","Seldovia, Kenai Peninsula, Alaska, United States",59.4388204,-151.7120131
46,AK,SEWARD,4541963,"SEWARD, AK, United States","Seward, Kenai Peninsula, Alaska, 99664-1195, United States",60.104202,-149.442611
47,AK,SITKA,163206,"SITKA, AK, United States","Sitka, Alaska, 99835, United States",57.0524973,-135.337612
48,AK,SKAGWAY,121219,"SKAGWAY, AK, United States","Skagway, Alaska, 99840, United States",59.4556412,-135.3116103
49,AK,SOLDOTNA,15910286,"SOLDOTNA, AK, United States","Soldotna, Kenai Peninsula, Alaska, United States",60.4847228,-151.065349
50,AK,STERLING,20061,"STERLING, AK, United States","Sterling, Kenai Peninsula, Alaska, 99672, United States",60.536235,-150.85647760696855
51,AK,TALKEETNA,567296,"TALKEETNA, AK, United States","Talkeetna, Matanuska-Susitna, Alaska, United States",62.267644,-150.02952875707462
52,AK,TOK,21011,"TOK, AK, United States","Tok, Unorganized Borough, Alaska, 99780, United States",63.3239655,-143.05116251136363
53,AK,UNALASKA,174505,"UNALASKA, AK, United States","Unalaska, Unorganized Borough, Alaska, United States",53.9256265,-166.57462662368863
54,AK,VALDEZ,20386,"VALDEZ, AK, United States","Valdez, Unorganized Borough, Alaska, 99686, United States",61.1299396,-146.349363
55,AK,WARD COVE,38866,"WARD COVE, AK, United States","Ward Cove, Ketchikan Gateway, Alaska, 99928, United States",55.4096986,-131.7242719
56,AK,WASILLA,6381694,"WASILLA, AK, United States","Wasilla, Matanuska-Susitna, Alaska, United States",61.5824216,-149.4425638
57,AK,WHITTIER,73,"WHITTIER, AK, United States","Whittier, Unorganized Borough, Alaska, 99693, United States",60.7730556,-148.6838889
58,AK,WILLOW,30980,"WILLOW, AK, United States","Willow, Matanuska-Susitna, Alaska, United States",61.7472222,-150.0375
59,AK,WRANGELL,1291,"WRANGELL, AK, United States","Wrangell, Alaska, 99929, United States",56.4706022,-132.3829431
60,AK,YAKUTAT,412145,"YAKUTAT, AK, United States","Yakutat, Alaska, 99869, United States",59.572734499999996,-139.57831243878087
61,AL,ABBEVILLE,1049767,"ABBEVILLE, AL, United States","Abbeville, Henry County, Alabama, 36310, United States",31.5718352,-85.2504893
62,AL,ACTON,456871,"ACTON, AL, United States","Acton, Jefferson County, Alabama, 35243, United States",33.4267745,-86.7352655
63,AL,ADAMSVILLE,235708,"ADAMSVILLE, AL, United States","Adamsville, Jefferson County, Alabama, 35005, United States",33.6009389,-86.9561059
64,AL,ADDISON,17878,"ADDISON, AL, United States","Addison, Winston County, Alabama, United States",34.2023243,-87.1814012
65,AL,ALABASTER,1724711,"ALABASTER, AL, United States","Alabaster, Shelby County, Alabama, 35007, United States",33.2442813,-86.8163773
66,AL,ALBERTVILLE,2605325,"ALBERTVILLE, AL, United States","Albertville, Marshall County, Alabama, United States",34.2675937,-86.2088669
68,AL,ALEXANDER CITY,15192749,"ALEXANDER CITY, AL, United States","Alexander City, Tallapoosa County, Alabama, 35010, United States",32.944012,-85.9538532
69,AL,ALEXANDRIA,123809,"ALEXANDRIA, AL, United States","Alexandria, Calhoun County, Alabama, 36250, United States",33.768701,-85.88066868678666
70,AL,ALICEVILLE,800266,"ALICEVILLE, AL, United States","Aliceville, Pickens County, Alabama, 35442, United States",33.1295681,-88.1514166
71,AL,ALTOONA,461354,"ALTOONA, AL, United States","Altoona, Etowah County, Alabama, United States",34.031470999999996,-86.32144390654034
72,AL,ANDALUSIA,3307029,"ANDALUSIA, AL, United States","Andalusia, Covington County, Alabama, 36420, United States",31.3080607,-86.482424
74,AL,ANNISTON,28857132,"ANNISTON, AL, United States","Anniston, Calhoun County, Alabama, 36202, United States",33.6594422,-85.8316326
75,AL,ARAB,1125517,"ARAB, AL, United States","Arab, Marshall County, Alabama, 35016, United States",34.3181497,-86.4958219
76,AL,ARDMORE,7942,"ARDMORE, AL, United States","Ardmore, Limestone County, Alabama, United States",34.986364,-86.83800450331327
77,AL,ARITON,617,"ARITON, AL, United States","Ariton, Dale County, Alabama, United States",31.6001655,-85.7188298
78,AL,ASHFORD,7808,"ASHFORD, AL, United States","Ashford, Houston County, Alabama, 36312, United States",31.1829562,-85.236321
79,AL,ASHLAND,9446969,"ASHLAND, AL, United States","Ashland, Alameda County, California, United States",37.69702515,-122.11518664734417
80,AL,ASHVILLE,450865,"ASHVILLE, AL, United States","Ashville, St. Clair County, Alabama, 35953, United States",33.8369216,-86.2549799
81,AL,ATHENS,15697180,"ATHENS, AL, United States","Athens, Limestone County, Alabama, 35611, United States",34.8045487,-86.9711698
82,AL,ATMORE,11967387,"ATMORE, AL, United States","Atmore, Escambia County, Alabama, United States",31.0237921,-87.4938708
83,AL,ATTALLA,1088696,"ATTALLA, AL, United States","Attalla, Etowah County, Alabama, 35954, United States",34.0217639,-86.0885851
84,AL,AUBURN,3923672,"AUBURN, AL, United States","Auburn, Lee County, Alabama, 36949, United States",32.6098566,-85.4807825
85,AL,AUBURN UNIVERSITY,640,"AUBURN UNIVERSITY, AL, United States","Auburn University, Auburn, Lee County, Alabama, 36849, United States",32.591987700000004,-85.4959487362446
86,AL,AUTAUGAVILLE,10744,"AUTAUGAVILLE, AL, United States","Autaugaville, Autauga County, Alabama, United States",32.4340249,-86.6547019
87,AL,BAILEYTON,945,"BAILEYTON, AL, United States","Baileyton, Cullman County, Alabama, United States",34.2658,-86.60434597078739
88,AL,BATON ROUGE,136426,"BATON ROUGE, AL, United States","Baton Rouge Road, Clarke County, Alabama, United States",31.56864,-87.834811
89,AL,BAY MINETTE,248085,"BAY MINETTE, AL, United States","Bay Minette, Baldwin County, Alabama, 36507, United States",30.8829628,-87.7730474
91,AL,BAYOU LA BATRE,118790,"BAYOU LA BATRE, AL, United States","Bayou La Batre, Mobile County, Alabama, 36509, United States",30.4030511,-88.2486876
92,AL,BEAVERTON,1645,"BEAVERTON, AL, United States","Beaverton, Lamar County, Alabama, 35544, United States",33.9312162,-88.0203075
93,AL,BESSEMER,12860380,"BESSEMER, AL, United States","Bessemer, Jefferson County, Alabama, United States",33.4017766,-86.954437
94,AL,BIRMINGHAM,240351236,"BIRMINGHAM, AL, United States","Birmingham, Jefferson County, Alabama, 35202, United States",33.5206824,-86.8024326
95,AL,BLOUNTSVILLE,543,"BLOUNTSVILLE, AL, United States","Blountsville, Blount County, Alabama, United States",34.0814863,-86.5911027
96,AL,BOAZ,1648162,"BOAZ, AL, United States","Boaz, Marshall County, Alabama, 35957, United States",34.2006503,-86.1663655
97,AL,BRANTLEY,3043,"BRANTLEY, AL, United States","Brantley, Crenshaw County, Alabama, United States",31.5823832,-86.2571786
98,AL,BRENT,4742,"BRENT, AL, United States","Brent, Bibb County, Alabama, 35034, United States",32.9373463,-87.1647184
99,AL,BREWTON,10490011,"BREWTON, AL, United States","Brewton, Escambia County, Alabama, United States",31.1051779,-87.0721918
100,AL,BRIDGEPORT,6923,"BRIDGEPORT, AL, United States","Bridgeport, Jackson County, Alabama, 35740, United States",34.9511335,-85.7179607154118
101,AL,BROOKLYN,24401,"BROOKLYN, AL, United States","Brooklyn, Coffee County, Alabama, United States",31.3129461,-86.1710596
102,AL,BROOKWOOD,52,"BROOKWOOD, AL, United States","Brookwood, Tuscaloosa County, Alabama, United States",33.2556719,-87.3208336
103,AL,BROWNSBORO,53519,"BROWNSBORO, AL, United States","Brownsboro, Madison County, Alabama, United States",34.7492568,-86.443044
104,AL,BRUNDIDGE,36942,"BRUNDIDGE, AL, United States","Brundidge, Pike County, Alabama, 36010, United States",31.7201615,-85.8160567
105,AL,BUTLER,5622328,"BUTLER, AL, United States","Butler, Choctaw County, Alabama, 36904, United States",32.0895908,-88.2219652
106,AL,CALERA,216871,"CALERA, AL, United States","Calera, Shelby County, Alabama, 35040, United States",33.1035045,-86.7505733
107,AL,CAMDEN,2994573,"CAMDEN, AL, United States","Camden, Wilcox County, Alabama, 36726, United States",31.9909813,-87.2905456
108,AL,CAMP HILL,2711,"CAMP HILL, AL, United States","Camp Hill, Tallapoosa County, Alabama, 36850, United States",32.8004059,-85.6535659
109,AL,CARROLLTON,5616017,"CARROLLTON, AL, United States","Carrollton, Pickens County, Alabama, United States",33.2617871,-88.0950263
110,AL,CEDAR BLUFF,3838,"CEDAR BLUFF, AL, United States","Cedar Bluff, Cherokee County, Alabama, 35959, United States",34.2200942,-85.6077402
111,AL,CENTER POINT,106,"CENTER POINT, AL, United States","Center Point, Jefferson County, Alabama, United States",33.6456583,-86.6836001
112,AL,CENTERPOINT,18,"CENTERPOINT, AL, United States","Athens Limestone Crossing, Athens, Limestone County, Alabama, United States",34.78568295,-86.94179343851269
113,AL,CENTRE,1749050,"CENTRE, AL, United States","Centre, Cherokee County, Alabama, United States",34.1520406,-85.6788531
114,AL,CENTREVILLE,7916093,"CENTREVILLE, AL, United States","Centreville, Bibb County, Alabama, 35042, United States",32.9445682,-87.1386067
115,AL,CHATOM,4962808,"CHATOM, AL, United States","Chatom, Washington County, Alabama, United States",31.4651653,-88.2544557
116,AL,CHELSEA,123458,"CHELSEA, AL, United States","Chelsea, Shelby County, Alabama, United States",33.3467195,-86.63644825
117,AL,CHEROKEE,1005,"CHEROKEE, AL, United States","Cherokee County, Alabama, United States",34.1142554,-85.6004514
118,AL,CHILDERSBURG,355989,"CHILDERSBURG, AL, United States","Childersburg, Talladega County, Alabama, United States",33.2781686,-86.3549774
119,AL,CITRONELLE,562637,"CITRONELLE, AL, United States","Citronelle, Mobile County, Alabama, 36522, United States",31.092438,-88.23607915770609
120,AL,CLANTON,1748858,"CLANTON, AL, United States","Clanton, Chilton County, Alabama, United States",32.8387371,-86.6294262
121,AL,CLAY,13058,"CLAY, AL, United States","Clay, Jefferson County, Alabama, United States",33.715158,-86.5866694493927
122,AL,CLAYTON,18586,"CLAYTON, AL, United States","Clayton, Barbour County, Alabama, United States",31.8782162,-85.4496627
123,AL,CLIO,715,"CLIO, AL, United States","Clio, Barbour County, Alabama, United States",31.7087753,-85.6104972
124,AL,COALING,840,"COALING, AL, United States","Coaling, Tuscaloosa County, Alabama, 35449, United States",33.1590078,-87.340834
125,AL,COKER,27995,"COKER, AL, United States","Coker, Tuscaloosa County, Alabama, United States",33.2459512,-87.6877882
126,AL,COLLINSVILLE,1243742,"COLLINSVILLE, AL, United States","Collinsville, DeKalb County, Alabama, 35961, United States",34.269124,-85.86073649539672
127,AL,COLUMBIA,1862,"COLUMBIA, AL, United States","Columbia, Houston County, Alabama, United States",31.2926927,-85.1117467
128,AL,COLUMBIANA,617008,"COLUMBIANA, AL, United States","Columbiana, Shelby County, Alabama, 35051, United States",33.19211,-86.59871898978659
129,AL,CORDOVA,871917,"CORDOVA, AL, United States","Cordova, Walker County, Alabama, 35550, United States",33.7598291,-87.1833349
130,AL,COTTONWOOD,5723,"COTTONWOOD, AL, United States","Cottonwood, Houston County, Alabama, United States",31.0487933,-85.3049326
131,AL,CROPWELL,62644,"CROPWELL, AL, United States","Cropwell, Pell City, St. Clair County, Alabama, 35054-1102, United States",33.5523269,-86.2691438
132,AL,CROSSVILLE,1179471,"CROSSVILLE, AL, United States","Crossville, DeKalb County, Alabama, United States",34.2875925,-85.99414
133,AL,CULLMAN,14480350,"CULLMAN, AL, United States","Cullman County, Alabama, United States",34.1335332,-86.8779268
134,AL,DADEVILLE,12647567,"DADEVILLE, AL, United States","Dadeville, Tallapoosa County, Alabama, United States",32.831238,-85.7635692
135,AL,DALEVILLE,49034,"DALEVILLE, AL, United States","Daleville, Dale County, Alabama, 36322, United States",31.3101719,-85.7129908
136,AL,DAPHNE,5087546,"DAPHNE, AL, United States","Daphne, Baldwin County, Alabama, 35626, United States",30.6035255,-87.9036047
137,AL,DECATUR,13145259,"DECATUR, AL, United States","Decatur, Morgan County, Alabama, 35602, United States",34.6060203,-86.9838165
138,AL,DEMOPOLIS,14978884,"DEMOPOLIS, AL, United States","Demopolis, Marengo County, Alabama, 20296, United States",32.5178284,-87.8368201
139,AL,DICKINSON,4267,"DICKINSON, AL, United States","Dickinson, Clarke County, Alabama, 36436, United States",31.7634884,-87.7105544
140,AL,DORA,69151,"DORA, AL, United States","Dora, Walker County, Alabama, 35038, United States",33.728717,-87.0902772
141,AL,DOTHAN,64866098,"DOTHAN, AL, United States","Dothan, Houston County, Alabama, 36303-5834, United States",31.2237434,-85.3933906
142,AL,DOUBLE SPRINGS,757362,"DOUBLE SPRINGS, AL, United States","Double Springs, Winston County, Alabama, 35553, United States",34.1464916,-87.4022386
143,AL,DUNCANVILLE,5771,"DUNCANVILLE, AL, United States","Duncanville, Tuscaloosa County, Alabama, 35456, United States",33.0617885,-87.4422252
144,AL,DUTTON,968,"DUTTON, AL, United States","Dutton, Jackson County, Alabama, 35744, United States",34.6109183,-85.91692
145,AL,EASTABOGA,389080,"EASTABOGA, AL, United States","Eastaboga, Calhoun County, Alabama, 36260, United States",33.6059367,-86.0213587
146,AL,ECLECTIC,87658,"ECLECTIC, AL, United States","Eclectic, Elmore County, Alabama, 35024, United States",32.6354093,-86.0344079
147,AL,EIGHT MILE,53064,"EIGHT MILE, AL, United States","Eight Mile, Prichard, Mobile County, Alabama, 36612, United States",30.7635213,-88.126946
148,AL,ELBA,143437,"ELBA, AL, United States","Elba, Coffee County, Alabama, 36323, United States",31.4146108,-86.0677243
149,AL,ELBERTA,48036,"ELBERTA, AL, United States","Elberta, Baldwin County, Alabama, United States",30.4144143,-87.5981531
150,AL,ELKMONT,10046,"ELKMONT, AL, United States","Elkmont, Limestone County, Alabama, 35620, United States",34.9289743,-86.9738959
151,AL,ELMORE,17162,"ELMORE, AL, United States","Elmore County, Alabama, United States",32.5801231,-86.125195
152,AL,ENTEPRISE,21293,"ENTEPRISE, AL, United States","Enteprise Drive, Palm Coast, Flagler County, Florida, 32164, United States",29.5289085,-81.2643631
153,AL,ENTERPRISE,3787302,"ENTERPRISE, AL, United States","Enterprise, Coffee County, Alabama, 36330-1915, United States",31.3151708,-85.8552161
154,AL,EUFALA,6690,"EUFALA, AL, United States","U.S. Coast Guard - Aids to Navigation Team Eufala, Hoboken, Eufaula, Barbour County, Alabama, 36027, United States",31.908345949999998,-85.14396224153569
155,AL,EUFAULA,6652528,"EUFAULA, AL, United States","Eufaula, Barbour County, Alabama, 36072, United States",31.8912717,-85.1454876
156,AL,EUTAW,5755942,"EUTAW, AL, United States","Eutaw, Greene County, Alabama, 35462, United States",32.8406848,-87.8875144
157,AL,EVA,1077,"EVA, AL, United States","Eva, Morgan County, Alabama, United States",34.3323178,-86.758888
158,AL,EVERGREEN,4871046,"EVERGREEN, AL, United States","Evergreen, Conecuh County, Alabama, 36401, United States",31.4334994,-86.9569176
159,AL,EXCEL,25999,"EXCEL, AL, United States","Excel, Monroe County, Alabama, 36439, United States",31.4279433,-87.3413731
160,AL,FAIRFIELD,60660,"FAIRFIELD, AL, United States","Fairfield, Jefferson County, Alabama, United States",33.475687750000006,-86.9166669629999
161,AL,FAIRHOPE,5033078,"FAIRHOPE, AL, United States","Fairhope, Baldwin County, Alabama, United States",30.506142500000003,-87.89016259414225
162,AL,FALKVILLE,2442027,"FALKVILLE, AL, United States","Falkville, Morgan County, Alabama, United States",34.36738149999999,-86.88871131818125
163,AL,FAYETTE,528153,"FAYETTE, AL, United States","Fayette County, Alabama, United States",33.7303493,-87.7419088
164,AL,FLOMATON,16586,"FLOMATON, AL, United States","Flomaton, Escambia County, Alabama, 36441, United States",31.000182,-87.2608071
165,AL,FLORALA,897009,"FLORALA, AL, United States","Florala, Covington County, Alabama, 36442, United States",31.00518,-86.3280018
166,AL,FLORENCE,12611754,"FLORENCE, AL, United States","Florence, Lauderdale County, Alabama, 35631, United States",34.79981,-87.677251
167,AL,FOLEY,3513138,"FOLEY, AL, United States","Foley, Baldwin County, Alabama, 36535, United States",30.4065868,-87.6835974
169,AL,FORT PAYNE,3615916,"FORT PAYNE, AL, United States","Fort Payne, DeKalb County, Alabama, 35967, United States",34.4442547,-85.7196893
170,AL,FRISCO CITY,303,"FRISCO CITY, AL, United States","Frisco City, Monroe County, Alabama, 36445, United States",31.4334985,-87.401375
171,AL,FT PAYNE,10660,"FT PAYNE, AL, United States","Fort Payne, DeKalb County, Alabama, 35967, United States",34.4442547,-85.7196893
172,AL,FT. PAYNE,3107,"FT. PAYNE, AL, United States","Fort Payne, DeKalb County, Alabama, 35967, United States",34.4442547,-85.7196893
173,AL,FULTON,121278,"FULTON, AL, United States","Fulton, Clarke County, Alabama, United States",31.7884881,-87.7272221
174,AL,FULTONDALE,683994,"FULTONDALE, AL, United States","Fultondale, Jefferson County, Alabama, United States",33.6349905,-86.78872033108945
175,AL,FYFFE,125369,"FYFFE, AL, United States","Fyffe, DeKalb County, Alabama, 35971, United States",34.4470207,-85.9039621
176,AL,GADSDEN,12526223,"GADSDEN, AL, United States","Gadsden, Etowah County, Alabama, 35901, United States",34.010929,-85.9989596
177,AL,"GADSDEN,",71267,"GADSDEN,, AL, United States","United States Highway 431 Bypass, Gadsden, Etowah County, Alabama, 35901, United States",33.9722502,-85.9740411
178,AL,GARDENDALE,2115549,"GARDENDALE, AL, United States","Gardendale, Jefferson County, Alabama, 35071, United States",33.6601033,-86.8127702
179,AL,GENEVA,6575173,"GENEVA, AL, United States","Geneva County, Alabama, United States",31.0862933,-85.803014
180,AL,GEORGIANA,728296,"GEORGIANA, AL, United States","Georgiana, Butler County, Alabama, 36015, United States",31.6371028,-86.7419175
181,AL,GERALDINE,75180,"GERALDINE, AL, United States","Geraldine, DeKalb County, Alabama, 35974, United States",34.3514798,-86.0008078
182,AL,GILBERTOWN,145243,"GILBERTOWN, AL, United States","Gilbertown, Choctaw County, Alabama, United States",31.8770975,-88.3214089
183,AL,GLENCOE,931470,"GLENCOE, AL, United States","Glencoe, Etowah County, Alabama, United States",33.9522585,-85.92537820802963
184,AL,GLENVIEW,9377,"GLENVIEW, AL, United States","Glenview, Oakland, Alameda County, California, 94602, United States",37.8072396,-122.2214432
185,AL,GOODWATER,505866,"GOODWATER, AL, United States","Goodwater, Coosa County, Alabama, United States",33.0637706,-86.0538692
186,AL,GORDO,67139,"GORDO, AL, United States","Gordo, Pickens County, Alabama, United States",33.3201178,-87.9027962
187,AL,GRAND BAY,963242,"GRAND BAY, AL, United States","Grand Bay, Mobile County, Alabama, United States",30.472215499999997,-88.34653955188679
188,AL,GRANT,28793,"GRANT, AL, United States","Grant, Marshall County, Alabama, 35747, United States",34.5286985,-86.2533165
189,AL,GREENSBORO,6569464,"GREENSBORO, AL, United States","Greensboro, Hale County, Alabama, 36744, United States",32.7045753,-87.5958396
190,AL,GREENVILLE,9429732,"GREENVILLE, AL, United States","Greenville, Butler County, Alabama, 36037, United States",31.8295972,-86.6177517
191,AL,GROVE HILL,8787074,"GROVE HILL, AL, United States","Grove Hill, Monroe County, Alabama, United States",31.3882223,-87.6547143
192,AL,GUIN,565712,"GUIN, AL, United States","Guin, Marion County, Alabama, 35563, United States",33.9737045,-87.9097029481928
193,AL,GULF BREEZE,81253,"GULF BREEZE, AL, United States","Gulf Breeze RV Resort, B Street, Baldwin County, Alabama, 36542, United States",30.311448650000003,-87.68651957789145
194,AL,GULF SHORE,4134,"GULF SHORE, AL, United States","Gulf Breeze Terrace, Lake Shore Estates, Palm Harbor, Pinellas County, Florida, 34684, United States",28.0998117,-82.7345005
195,AL,GULF SHORES,554855,"GULF SHORES, AL, United States","Gulf Shores, Baldwin County, Alabama, 36542, United States",30.2711224,-87.6893826
196,AL,GUNTERSVILLE,21954506,"GUNTERSVILLE, AL, United States","Guntersville, Marshall County, Alabama, 35976, United States",34.3581474,-86.2947041
197,AL,HACKLEBURG,320461,"HACKLEBURG, AL, United States","Hackleburg, Marion County, Alabama, 35564, United States",34.2776095,-87.8284254
198,AL,HALEYVILLE,5953498,"HALEYVILLE, AL, United States","Haleyville, Winston County, Alabama, 35565, United States",34.226488,-87.6214133
199,AL,HAMILTON,538834,"HAMILTON, AL, United States","Hamilton, Marion County, Alabama, 35570, United States",34.116042,-87.97653434699288
200,AL,HAMPTON COVE,10942,"HAMPTON COVE, AL, United States","Hampton Cove, Pelham, Shelby County, Alabama, 35124, United States",33.299357,-86.781461
201,AL,HANCEVILLE,1956189,"HANCEVILLE, AL, United States","Hanceville, Cullman County, Alabama, United States",34.0606545,-86.767498
202,AL,HARPERSVILLE,1260,"HARPERSVILLE, AL, United States","Harpersville, Shelby County, Alabama, 35078, United States",33.3439995,-86.4380357
203,AL,HARTFORD,678408,"HARTFORD, AL, United States","Hartford, Geneva County, Alabama, 36344, United States",31.1023998,-85.6968778
204,AL,HARTSELLE,310621,"HARTSELLE, AL, United States","Hartselle, Morgan County, Alabama, 35640, United States",34.4435937,-86.9347899
205,AL,HARVEST,69565,"HARVEST, AL, United States","Harvest, Madison County, Alabama, United States",34.857193249999995,-86.74907012252524
206,AL,HATCHECHUBBEE,76405,"HATCHECHUBBEE, AL, United States","Hatchechubbee, Russell County, Alabama, 36858, United States",32.2707034,-85.2757733
207,AL,HAYDEN,17936,"HAYDEN, AL, United States","Hayden, Blount County, Alabama, United States",33.8926003,-86.757773
208,AL,HAYNEVILLE,607827,"HAYNEVILLE, AL, United States","Hayneville, Lowndes County, Alabama, United States",32.1840315,-86.5802533
209,AL,HAZEL GREEN,271493,"HAZEL GREEN, AL, United States","Hazel Green, Madison County, Alabama, 35750, United States",34.925627500000004,-86.5667604295989
210,AL,HEADLAND,68014,"HEADLAND, AL, United States","Headland, Henry County, Alabama, 36345, United States",31.351284,-85.3421559
212,AL,HEFLIN,543822,"HEFLIN, AL, United States","Heflin, Cleburne County, Alabama, United States",33.6463605,-85.55636305418767
213,AL,HELENA,71805,"HELENA, AL, United States","Helena, Shelby County, Alabama, 35080, United States",33.296224,-86.8436004
214,AL,HENAGAR,81864,"HENAGAR, AL, United States","Henagar, DeKalb County, Alabama, 35978, United States",34.635084,-85.7671936
215,AL,HOKES BLUFF,15635,"HOKES BLUFF, AL, United States","Hokes Bluff, Etowah County, Alabama, 35903, United States",33.9981546,-85.8663574
216,AL,HOLLY POND,577,"HOLLY POND, AL, United States","Holly Pond, Cullman County, Alabama, United States",34.1742634,-86.616382
217,AL,HOMEWOOD,71941432,"HOMEWOOD, AL, United States","Homewood, Jefferson County, Alabama, United States",33.4717732,-86.8008228
219,AL,HOOVER,5899121,"HOOVER, AL, United States","Hoover, Shelby County, Alabama, United States",33.4092646,-86.66217961474177
220,AL,HORTON,62900,"HORTON, AL, United States","Horton, Marshall County, Alabama, United States",34.2009283,-86.2969248
221,AL,HUEYTOWN,1388261,"HUEYTOWN, AL, United States","Hueytown, Jefferson County, Alabama, United States",33.458102999999994,-86.95233276079975
224,AL,HUNTSVILLE,94559301,"HUNTSVILLE, AL, United States","Huntsville, Madison County, Alabama, 35804, United States",34.729847,-86.5859011
225,AL,HUNTVILLE,2679,"HUNTVILLE, AL, United States","Huntville Road, Katonah, Town of Bedford, Westchester County, New York, 10536, United States",41.2514915,-73.6905934
226,AL,HURTSBORO,8232,"HURTSBORO, AL, United States","Hurtsboro, Russell County, Alabama, United States",32.2418146,-85.4163327
227,AL,IDER,183997,"IDER, AL, United States","Ider, DeKalb County, Alabama, United States",34.7142484,-85.6808031
228,AL,IRONDALE,201283,"IRONDALE, AL, United States","Irondale, Jefferson County, Alabama, 35210, United States",33.52977935,-86.68912780008621
229,AL,JACKSON,5404274,"JACKSON, AL, United States","Jackson County, Alabama, United States",34.7692447,-85.9867941
230,AL,JACKSONVILLE,1794903,"JACKSONVILLE, AL, United States","Jacksonville, Calhoun County, Alabama, 36265, United States",33.8137163,-85.7613476
231,AL,JASPER,8231086,"JASPER, AL, United States","Jasper, Walker County, Alabama, 35501, United States",33.8312185,-87.2775053
232,AL,JEMISON,66405,"JEMISON, AL, United States","Jemison, Chilton County, Alabama, 35085, United States",32.969143,-86.73627879719788
233,AL,KELLYTON,9487,"KELLYTON, AL, United States","Kellyton, Coosa County, Alabama, United States",32.976828999999995,-86.0342295156136
234,AL,KENNER,105213,"KENNER, AL, United States","Kenner Creek Road, Millbrook, Elmore County, Alabama, 36022, United States",32.544615,-86.391287
235,AL,KILLEEN,242824,"KILLEEN, AL, United States","Killeen, Bell County, Texas, United States",31.1171441,-97.727796
236,AL,KILLEN,602442,"KILLEN, AL, United States","Killen, Lauderdale County, Alabama, United States",34.8628637,-87.5375253
237,AL,KIMBERLY,94,"KIMBERLY, AL, United States","Kimberly, Jefferson County, Alabama, 35091, United States",33.7734352,-86.8138832
238,AL,LACEYS SPRING,14571,"LACEYS SPRING, AL, United States","Laceys Spring, Morgan County, Alabama, 35754, United States",34.5342584,-86.6041596
239,AL,LAFAYETTE,1146903,"LAFAYETTE, AL, United States","LaFayette, Chambers County, Alabama, 36862, United States",32.8998486,-85.4010592
240,AL,LANETT,634604,"LANETT, AL, United States","Lanett, Chambers County, Alabama, 36863, United States",32.8687391,-85.1904971
241,AL,LEEDS,176108,"LEEDS, AL, United States","Leeds, Jefferson County, Alabama, 35094, United States",33.5439212,-86.5427551
242,AL,LEESBURG,10092,"LEESBURG, AL, United States","Leesburg, Cherokee County, Alabama, 35983, United States",34.1798177,-85.7613555
243,AL,LEXINGTON,21066,"LEXINGTON, AL, United States","Lexington, Lauderdale County, Alabama, 35648, United States",34.9692501,-87.3711316
244,AL,LILLIAN,71200,"LILLIAN, AL, United States","Lillian, Baldwin County, Alabama, 46549, United States",30.4129759,-87.4369228
245,AL,LINCOLN,22453,"LINCOLN, AL, United States","Lincoln, Talladega County, Alabama, 35154, United States",33.6131588,-86.1183061
246,AL,LINDEN,666850,"LINDEN, AL, United States","Linden, Marengo County, Alabama, United States",32.3062535,-87.7980665
247,AL,LINEVILLE,712889,"LINEVILLE, AL, United States","Lineville, Clay County, Alabama, United States",33.3106696,-85.7544051
248,AL,LISMAN,1655,"LISMAN, AL, United States","Lisman, Choctaw County, Alabama, United States",32.1687554,-88.2825251
249,AL,LIVINGSTON,348838,"LIVINGSTON, AL, United States","Livingston, Sumter County, Alabama, 35470, United States",32.5843026,-88.1872474
250,AL,LOCUST FORK,22943,"LOCUST FORK, AL, United States","Locust Fork, Blount County, Alabama, United States",33.9075992,-86.6152685
251,AL,LOUISVILLE,48,"LOUISVILLE, AL, United States","Louisville, Barbour County, Alabama, United States",31.7834963,-85.5557751
252,AL,LUVERNE,5504505,"LUVERNE, AL, United States","Luverne, Crenshaw County, Alabama, 36049, United States",31.7165455,-86.2638492
254,AL,MADISON,7758458,"MADISON, AL, United States","Madison County, Alabama, United States",34.7736807,-86.5675095
255,AL,MAGNOLIA SPRINGS,25941,"MAGNOLIA SPRINGS, AL, United States","Magnolia Springs, Baldwin County, Alabama, United States",30.4007145,-87.77632300797607
256,AL,MALVERN,63878,"MALVERN, AL, United States","Malvern, Geneva County, Alabama, United States",31.1393439,-85.5191005
257,AL,MAPLESVILLE,4352,"MAPLESVILLE, AL, United States","Maplesville, Chilton County, Alabama, United States",32.7884608,-86.8716549
258,AL,MARIANNA,453548,"MARIANNA, AL, United States","Marianna Drive, Abbeville, Henry County, Alabama, 36310, United States",31.575452,-85.258324
259,AL,MARION,1056035,"MARION, AL, United States","Marion County, Alabama, United States",34.1128132,-87.8544031
260,AL,MAYLENE,1025,"MAYLENE, AL, United States","Maylene, Alabaster, Shelby County, Alabama, 35114, United States",33.2034492,-86.861656
261,AL,MC CALLA,15658,"MC CALLA, AL, United States","Mc Calla Street, East Palestine, Columbiana County, Ohio, 44413, United States",40.833285,-80.545542
262,AL,MCCALLA,871438,"MCCALLA, AL, United States","McCalla, Jefferson County, Alabama, United States",33.3062319,-87.0241656
263,AL,MCINTOSH,8876,"MCINTOSH, AL, United States","McIntosh, Washington County, Alabama, United States",31.2662818,-88.0313903
264,AL,MENTONE,521,"MENTONE, AL, United States","Mentone, DeKalb County, Alabama, 35984, United States",34.5795282,-85.5905204
265,AL,MERIDIANVILLE,891,"MERIDIANVILLE, AL, United States","Meridianville, Madison County, Alabama, 35759, United States",34.8703256,-86.5713611509602
266,AL,METAIRIE,68758,"METAIRIE, AL, United States","Metairie, Jefferson Parish, Louisiana, United States",30.00185465,-90.1767012249077
268,AL,MIDFIELD,8163,"MIDFIELD, AL, United States","Midfield, Jefferson County, Alabama, United States",33.4614966,-86.9088808
269,AL,MIDLAND CITY,9918,"MIDLAND CITY, AL, United States","Midland City, Dale County, Alabama, 36350, United States",31.3187878,-85.4938975
270,AL,MILLBROOK,179465,"MILLBROOK, AL, United States","Millbrook, Elmore County, Alabama, 36054, United States",32.4798575,-86.3619163
271,AL,MILLPORT,9444,"MILLPORT, AL, United States","Millport, Lamar County, Alabama, United States",33.5634478,-88.0814159
272,AL,MILLRY,112249,"MILLRY, AL, United States","Millry, Washington County, Alabama, United States",31.6340496,-88.3133487
273,AL,MOBILE,131123471,"MOBILE, AL, United States","Mobile, Mobile County, Alabama, United States",30.6943566,-88.0430541
274,AL,MONROEVILLE,11614640,"MONROEVILLE, AL, United States","Monroeville, Monroe County, Alabama, United States",31.5279399,-87.3247077
275,AL,MONTEVALLO,25392,"MONTEVALLO, AL, United States","Montevallo, Shelby County, Alabama, 35115, United States",33.1006746,-86.8641558
276,AL,MONTGOMERY,95799563,"MONTGOMERY, AL, United States","Montgomery, Montgomery County, Alabama, United States",32.3669656,-86.3006485
277,AL,MONTROSE,40758,"MONTROSE, AL, United States","Montrose, Fairhope, Baldwin County, Alabama, 36559, United States",30.5657487,-87.9016599
278,AL,MOODY,58323,"MOODY, AL, United States","Moody, St. Clair County, Alabama, 35004, United States",33.5909365,-86.4908168
279,AL,MORRIS,3210,"MORRIS, AL, United States","Morris, Jefferson County, Alabama, United States",33.744043,-86.8090242377801
280,AL,MOULTON,9632641,"MOULTON, AL, United States","Moulton, Lawrence County, Alabama, 35650, United States",34.4817816,-87.2919449
281,AL,MOUNDVILLE,608814,"MOUNDVILLE, AL, United States","Moundville, Hale County, Alabama, United States",32.9976242,-87.6300075
282,AL,MOUNTAIN BRK,236077,"MOUNTAIN BRK, AL, United States","Mountain Brook, Jefferson County, Alabama, United States",33.481719,-86.74500120798592
283,AL,MOUNTAIN BROOK,370305,"MOUNTAIN BROOK, AL, United States","Mountain Brook, Jefferson County, Alabama, United States",33.481719,-86.74500120798592
284,AL,MT BROOK,22813,"MT BROOK, AL, United States","Mt Brook Estates Road, Jonesboro, Franklin County, Alabama, 35653, United States",34.555333,-87.752748
285,AL,MUSCLE SHOALS,8459215,"MUSCLE SHOALS, AL, United States","Muscle Shoals, Colbert County, Alabama, United States",34.7451786,-87.6686733
286,AL,NATICK,36054,"NATICK, AL, United States","Natick, Lehigh Acres, Lee County, Florida, 33972, United States",26.596569,-81.571247
287,AL,NEW BROCKTON,1303406,"NEW BROCKTON, AL, United States","New Brockton, Coffee County, Alabama, 36351, United States",31.3857239,-85.9293861
288,AL,NEW HOPE,35214,"NEW HOPE, AL, United States","New Hope, Madison County, Alabama, 35760, United States",34.5358745,-86.41495804869777
289,AL,NEWTON,2599,"NEWTON, AL, United States","Newton, Dale County, Alabama, United States",31.3351716,-85.6052133
290,AL,NORTHPORT,5771888,"NORTHPORT, AL, United States","Northport, Tuscaloosa County, Alabama, United States",33.2449315,-87.6728397782913
291,AL,ODENVILLE,8406,"ODENVILLE, AL, United States","Odenville, St. Clair County, Alabama, United States",33.6773237,-86.3966481
292,AL,OHATCHEE,18846,"OHATCHEE, AL, United States","Ohatchee, Calhoun County, Alabama, 36271, United States",33.7834324,-86.0024703
293,AL,ONEONTA,6363619,"ONEONTA, AL, United States","Oneonta, Blount County, Alabama, 35121, United States",33.9481537,-86.472764
294,AL,OPELIKA,29365727,"OPELIKA, AL, United States","Opelika, Lee County, Alabama, 36801, United States",32.6454116,-85.3782795
295,AL,"OPELIKA,",352000,"OPELIKA,, AL, United States","United States Post Office, Opelika Road, Cary Woods, Auburn, Lee County, Alabama, 36830, United States",32.6119318,-85.47684299514044
296,AL,OPP,5372984,"OPP, AL, United States","Opp, Covington County, Alabama, 36467, United States",31.2821209,-86.255839
297,AL,ORANGE BEACH,551225,"ORANGE BEACH, AL, United States","Orange Beach, Baldwin County, Alabama, United States",30.282839799999998,-87.62460710389821
298,AL,OWENS CROSS ROAD,51444,"OWENS CROSS ROAD, AL, United States","Owens Cross Roads Elementary School, Wilson Mann Road, Owens Cross Roads, Madison County, Alabama, 35763, United States",34.588146,-86.456099
299,AL,OWENS CROSS ROADS,173515,"OWENS CROSS ROADS, AL, United States","Owens Cross Roads, Madison County, Alabama, United States",34.5881461,-86.4588768
301,AL,OWENS CROSSROADS,657664,"OWENS CROSSROADS, AL, United States","Crossroads, Guntersville, Marshall County, Alabama, 35976, United States",34.3220373,-86.3316494
302,AL,OXFORD,1433483,"OXFORD, AL, United States","Oxford, Talladega County, Alabama, United States",33.583652,-85.9424522315373
303,AL,OZARK,11890964,"OZARK, AL, United States","Ozark, Dale County, Alabama, 36361, United States",31.4584764,-85.6405865
304,AL,PALMERDALE,5115,"PALMERDALE, AL, United States","Palmerdale, Pinson, Jefferson County, Alabama, 35126, United States",33.738712,-86.6461003
305,AL,PARRISH,244079,"PARRISH, AL, United States","Parrish, Walker County, Alabama, United States",33.7306642,-87.2844473
306,AL,PELHAM,2710431,"PELHAM, AL, United States","Pelham, Shelby County, Alabama, 35124, United States",33.285669,-86.8099884
307,AL,PELL CITY,2764049,"PELL CITY, AL, United States","Pell City, St. Clair County, Alabama, 35125, United States",33.5862149,-86.2860888
309,AL,PHENIX CITY,3717489,"PHENIX CITY, AL, United States","Phenix City, Russell County, Alabama, United States",32.4709761,-85.0007653
310,AL,PHIL CAMPBELL,5307,"PHIL CAMPBELL, AL, United States","Phil Campbell, Franklin County, Alabama, 35581, United States",34.3516416,-87.7053803
312,AL,PIEDMONT,1103014,"PIEDMONT, AL, United States","Piedmont, Alameda County, California, 94611, United States",37.8243715,-122.231635
313,AL,PIKE ROAD,81435,"PIKE ROAD, AL, United States","Pike Road, Montgomery County, Alabama, United States",32.272931,-86.15018999518217
314,AL,PINSON,125192,"PINSON, AL, United States","Pinson, Jefferson County, Alabama, United States",33.706205,-86.67007895992774
315,AL,PISGAH,155280,"PISGAH, AL, United States","Pisgah, Jackson County, Alabama, United States",34.6809168,-85.8477523
316,AL,PLEASANT GROVE,1159609,"PLEASANT GROVE, AL, United States","Pleasant Grove, Jefferson County, Alabama, 35127, United States",33.4909405,-86.9702714
317,AL,PRATTVILLE,2831547,"PRATTVILLE, AL, United States","Prattville, Autauga County, Alabama, 36067., United States",32.4640245,-86.4596966
318,AL,PRICEVILLE,37917,"PRICEVILLE, AL, United States","Priceville, Morgan County, Alabama, United States",34.5250932,-86.8947271
319,AL,PRICHARD,2448,"PRICHARD, AL, United States","Prichard, Mobile County, Alabama, United States",30.7387998,-88.0788889
320,AL,RAINBOW CITY,605886,"RAINBOW CITY, AL, United States","Rainbow City, Etowah County, Alabama, 35906, United States",33.9549152,-86.0414098
321,AL,RAINSVILLE,517639,"RAINSVILLE, AL, United States","Rainsville, DeKalb County, Alabama, 35986, United States",34.4942536,-85.8477494
322,AL,RED BAY,44961,"RED BAY, AL, United States","Red Bay, Franklin County, Alabama, 35582, United States",34.4409459,-88.1432194
323,AL,REFORM,404741,"REFORM, AL, United States","Reform, Pickens County, Alabama, 35481, United States",33.378451,-88.0153008
324,AL,REHOBETH,3356,"REHOBETH, AL, United States","Rehobeth, Houston County, Alabama, United States",31.1229561,-85.4527113
325,AL,ROANOAKE,28833,"ROANOAKE, AL, United States","Roanoake, Warrenton, Warren County, Missouri, 63383, United States",38.8226636,-91.1315161
326,AL,ROANOKE,1523431,"ROANOKE, AL, United States","Roanoke, Randolph County, Alabama, 36274, United States",33.1512313,-85.3721709
327,AL,ROBERTSDALE,1173220,"ROBERTSDALE, AL, United States","Robertsdale, Baldwin County, Alabama, United States",30.5538048,-87.7119324
328,AL,ROGERSVILLE,87335,"ROGERSVILLE, AL, United States","Rogersville, Lauderdale County, Alabama, United States",34.825926499999994,-87.29224717566157
329,AL,RUSSELLVILLE,6299618,"RUSSELLVILLE, AL, United States","Russellville, Franklin County, Alabama, 35653, United States",34.5068228,-87.7290264
330,AL,SAMSON,9836,"SAMSON, AL, United States","Samson, Geneva County, Alabama, 36477, United States",31.1129539,-86.0460518
331,AL,SARALAND,432385,"SARALAND, AL, United States","Saraland, Mobile County, Alabama, 36571, United States",30.820742,-88.0705556
332,AL,SARDIS CITY,4132,"SARDIS CITY, AL, United States","Sardis City, Etowah County, Alabama, United States",34.1742616,-86.1227533
333,AL,SATSUMA,56811,"SATSUMA, AL, United States","Satsuma, Mobile County, Alabama, 36572, United States",30.853241,-88.0561106
334,AL,SAWYERVILLE,742,"SAWYERVILLE, AL, United States","Sawyerville, Hale County, Alabama, 36776, United States",32.7517973,-87.7294547
335,AL,SCOTSBORO,25722,"SCOTSBORO, AL, United States","Scotsboro Court, Oak Ridge, Orange County, Florida, 32839, United States",28.4775042,-81.4183311
336,AL,SCOTTSBORO,14003497,"SCOTTSBORO, AL, United States","Scottsboro, Jackson County, Alabama, 35768, United States",34.6731323,-86.0338765
337,AL,SEAFORD,5346,"SEAFORD, AL, United States","Seaford, Sussex County, Delaware, 19973, United States",38.6413452,-75.6114584
338,AL,SECTION,138222,"SECTION, AL, United States","Section, Jackson County, Alabama, United States",34.5789747,-85.986644
339,AL,SELMA,4640222,"SELMA, AL, United States","Selma, Dallas County, Alabama, 36701, United States",32.4078632,-87.0207473
340,AL,SEMMES,459285,"SEMMES, AL, United States","Semmes, Mobile County, Alabama, 36575, United States",30.778688,-88.2588427
341,AL,SHEFFIELD,1481028,"SHEFFIELD, AL, United States","Sheffield, Colbert County, Alabama, 35660, United States",34.7650888,-87.6986407
342,AL,SILVERHILL,144387,"SILVERHILL, AL, United States","Silverhill, Baldwin County, Alabama, United States",30.5454715,-87.7516559
343,AL,SLOCOMB,170275,"SLOCOMB, AL, United States","Slocomb, Geneva County, Alabama, 36395, United States",31.1082335,-85.594378
344,AL,SMITHS,105406,"SMITHS, AL, United States","Smiths Station, Lee County, Alabama, 36877, United States",32.5401394,-85.0985474
345,AL,SMITHS STATION,31836,"SMITHS STATION, AL, United States","Smiths Station, Lee County, Alabama, 36877, United States",32.5401394,-85.0985474
346,AL,SNEAD,16142,"SNEAD, AL, United States","Snead, Blount County, Alabama, United States",34.1157275,-86.39606170435235
347,AL,SOUTHSIDE,439118,"SOUTHSIDE, AL, United States","Southside, Etowah County, Alabama, 35907, United States",33.895979,-86.02962497644447
348,AL,SPANISH FORT,1058097,"SPANISH FORT, AL, United States","Spanish Fort, Baldwin County, Alabama, United States",30.6745365,-87.9348663532276
349,AL,SPRINGVILLE,231585,"SPRINGVILLE, AL, United States","Springville, St. Clair County, Alabama, 35146, United States",33.7750997,-86.4716512
350,AL,STAPLETON,17779,"STAPLETON, AL, United States","Stapleton, Baldwin County, Alabama, 36578, United States",30.742689,-87.7933252
351,AL,STEVENSON,12224,"STEVENSON, AL, United States","Stevenson, Jackson County, Alabama, 35772, United States",34.8378485,-85.83284441155689
353,AL,SULLIGENT,20523,"SULLIGENT, AL, United States","Sulligent, Lamar County, Alabama, United States",33.9017738,-88.1344776
354,AL,SUMITON,32454,"SUMITON, AL, United States","Sumiton, Walker County, Alabama, 35148, United States",33.7482955,-87.04062690673987
355,AL,SUMMERDALE,5575,"SUMMERDALE, AL, United States","Summerdale, Baldwin County, Alabama, United States",30.4876954,-87.6997094
356,AL,SWEET WATER,123692,"SWEET WATER, AL, United States","Sweet Water, Marengo County, Alabama, United States",32.0973707,-87.8675103
358,AL,SYLACAUGA,15069777,"SYLACAUGA, AL, United States","Sylacauga, Talladega County, Alabama, 35150, United States",33.1731716,-86.2516406
359,AL,SYLVANIA,45109,"SYLVANIA, AL, United States","Sylvania, DeKalb County, Alabama, 35988, United States",34.5623077,-85.8124715
360,AL,TALLADEGA,1928862,"TALLADEGA, AL, United States","Talladega County, Alabama, United States",33.3967079,-86.1597137
361,AL,TALLASSEE,10144327,"TALLASSEE, AL, United States","Tallassee, Elmore County, Alabama, 36078, United States",32.5368152,-85.8987271
362,AL,TALLEDEGA,2543853,"TALLEDEGA, AL, United States","Talledega Court, Talladega, Talladega County, Alabama, 36160, United States",33.445389,-86.1129381
363,AL,TANNER,155352,"TANNER, AL, United States","Tanner, Limestone County, Alabama, United States",34.7314787,-86.9705632
364,AL,THEODORE,269891,"THEODORE, AL, United States","Theodore, Mobile County, Alabama, 36582, United States",30.547295,-88.18020367595204
366,AL,THOMASVILLE,504868,"THOMASVILLE, AL, United States","Thomasville, Clarke County, Alabama, 36784, United States",31.9134859,-87.7358367
367,AL,THORSBY,19399,"THORSBY, AL, United States","Thorsby, Chilton County, Alabama, 35171, United States",32.9156796,-86.7158178
368,AL,TONEY,61779,"TONEY, AL, United States","Toney, Madison County, Alabama, 35773, United States",34.8981432,-86.7336098
369,AL,TOWN CREEK,2032,"TOWN CREEK, AL, United States","Town Creek, Lawrence County, Alabama, United States",34.6812012,-87.4061342
370,AL,TRINITY,54965,"TRINITY, AL, United States","Trinity, Morgan County, Alabama, United States",34.574905,-87.07327527403655
371,AL,TROY,8816371,"TROY, AL, United States","Troy, Pike County, Alabama, United States",31.8087678,-85.969951
372,AL,TRUSSVILLE,1402402,"TRUSSVILLE, AL, United States","Trussville, Jefferson County, Alabama, 35173-2345, United States",33.6196266,-86.6084342
373,AL,TUSCALOOSA,93074978,"TUSCALOOSA, AL, United States","Tuscaloosa, Tuscaloosa County, Alabama, United States",33.2095614,-87.5675258
374,AL,TUSCUMBIA,447500,"TUSCUMBIA, AL, United States","Tuscumbia, Colbert County, Alabama, United States",34.7312005,-87.70253
375,AL,TUSKEGEE,856206,"TUSKEGEE, AL, United States","Tuskegee, Macon County, Alabama, 36083, United States",32.4240286,-85.6916195
376,AL,UNION SPRINGS,5771081,"UNION SPRINGS, AL, United States","Union Springs, Bullock County, Alabama, 36089, United States",32.144316,-85.7149495
377,AL,VALLEY,641866,"VALLEY, AL, United States","Valley, Chambers County, Alabama, United States",32.8187406,-85.1793852
378,AL,VALLEY HEAD,106,"VALLEY HEAD, AL, United States","Valley Head, DeKalb County, Alabama, United States",34.5689732,-85.6149654
379,AL,VERNON,994653,"VERNON, AL, United States","Vernon, Lamar County, Alabama, 35592, United States",33.7570541,-88.1089185
380,AL,VESTAVIA,4327144,"VESTAVIA, AL, United States","Vestavia Hills, Jefferson County, Alabama, 35216, United States",33.4487989,-86.7879492
381,AL,VESTAVIA HILLS,1840483,"VESTAVIA HILLS, AL, United States","Vestavia Hills, Jefferson County, Alabama, 35216, United States",33.4487989,-86.7879492
382,AL,VESTAVIA HLS,543021,"VESTAVIA HLS, AL, United States","Vestavia Hills, Jefferson County, Alabama, 35216, United States",33.4487989,-86.7879492
383,AL,VINEMONT,1663,"VINEMONT, AL, United States","Vinemont, South Vinemont, Cullman County, Alabama, 35056, United States",34.2417649,-86.8661139
384,AL,WARRIOR,508485,"WARRIOR, AL, United States","Warrior, Jefferson County, Alabama, 35180, United States",33.8142682,-86.8094394
385,AL,WEAVER,1048,"WEAVER, AL, United States","Weaver, Calhoun County, Alabama, 36277, United States",33.7520457,-85.8113543
386,AL,WEDOWEE,3924385,"WEDOWEE, AL, United States","Wedowee, Randolph County, Alabama, United States",33.3090047,-85.484675
387,AL,WEST BLOCTON,83037,"WEST BLOCTON, AL, United States","West Blocton, Bibb County, Alabama, 35184, United States",33.1181748,-87.1249954
388,AL,WESTOVER,68143,"WESTOVER, AL, United States","Westover, Shelby County, Alabama, 35185, United States",33.3495548,-86.5358159
389,AL,WETUMPKA,4596333,"WETUMPKA, AL, United States","Wetumpka, Elmore County, Alabama, United States",32.5437448,-86.2119127
390,AL,WILMER,152106,"WILMER, AL, United States","Wilmer, Mobile County, Alabama, 36587, United States",30.823243,-88.3614002
391,AL,WINFIELD,5715083,"WINFIELD, AL, United States","Winfield, Marion County, Alabama, 35594, United States",33.928993,-87.8172457
392,AL,WOODBRIDGE,3272,"WOODBRIDGE, AL, United States","Woodbridge, Shades View Estates, Vestavia Hills, Jefferson County, Alabama, 35216, United States",33.445341,-86.805421
393,AL,WOODLAND,2234,"WOODLAND, AL, United States","Woodland, Randolph County, Alabama, 36280, United States",33.3742812,-85.399673
394,AL,WOODSTOCK,3037,"WOODSTOCK, AL, United States","Woodstock, Bibb County, Alabama, United States",33.196984,-87.12539090389035
395,AL,YORK,2893931,"YORK, AL, United States","York, Sumter County, Alabama, 36925, United States",32.4862491,-88.2964183
396,AR,ALMA,1373394,"ALMA, AR, United States","Alma, Crawford County, Arkansas, 72921, United States",35.4778653,-94.2218752
397,AR,AMITY,14020,"AMITY, AR, United States","Amity, Clark County, Arkansas, United States",34.2655239,-93.4647447987816
399,AR,ARKADELPHIA,3349296,"ARKADELPHIA, AR, United States","Arkadelphia, Clark County, Arkansas, United States",34.1209292,-93.053784
400,AR,ASH FLAT,1534450,"ASH FLAT, AR, United States","Ash Flat, Sharp County, Arkansas, United States",36.2334209,-91.61126816720483
401,AR,ASHDOWN,4699498,"ASHDOWN, AR, United States","Ashdown, Little River County, Arkansas, 71822, United States",33.67344,-94.1299625
402,AR,ATKINS,1412,"ATKINS, AR, United States","Atkins, Pope County, Arkansas, 72823, United States",35.2457358,-92.9368372
403,AR,AUGUSTA,10299790,"AUGUSTA, AR, United States","Augusta, Woodruff County, Arkansas, United States",35.2823079,-91.3654063
404,AR,AUSTIN,1509,"AUSTIN, AR, United States","Austin, Lonoke County, Arkansas, United States",34.9984206,-91.9837552
405,AR,BALD KNOB,13157,"BALD KNOB, AR, United States","Bald Knob, White County, Arkansas, United States",35.3163002,-91.5743960531091
406,AR,BARLING,433038,"BARLING, AR, United States","Barling, Sebastian County, Arkansas, 72923, United States",35.325647,-94.3016006
408,AR,BATESVILLE,34591090,"BATESVILLE, AR, United States","Batesville, Independence County, Arkansas, 72501, United States",35.769799,-91.6409722
409,AR,BEARDEN,74,"BEARDEN, AR, United States","Bearden, Ouachita County, Arkansas, 71720, United States",33.7245526,-92.6157139
410,AR,BEEBE,791211,"BEEBE, AR, United States","Beebe, White County, Arkansas, 72012, United States",35.0735738,-91.8863516
411,AR,BELLA VISTA,1446863,"BELLA VISTA, AR, United States","Bella Vista, Benton County, Arkansas, 72715, United States",36.4678036,-94.2669727
412,AR,BENTON,15709991,"BENTON, AR, United States","Benton County, Arkansas, United States",36.3456186,-94.2670404
413,AR,BENTONVILLE,1520073,"BENTONVILLE, AR, United States","Bentonville, Benton County, Arkansas, 72712, United States",36.3728538,-94.2088172
414,AR,BERRYVILLE,4862288,"BERRYVILLE, AR, United States","Berryville, Carroll County, Arkansas, 72616, United States",36.364792,-93.5679667
415,AR,BLYTHEVILLE,15409515,"BLYTHEVILLE, AR, United States","Blytheville, Mississippi County, Arkansas, 72315, United States",35.9272953,-89.9189754
416,AR,BONO,313,"BONO, AR, United States","Bono, Craighead County, Arkansas, 72416, United States",35.9089594,-90.7987293
417,AR,BOONEVILLE,3673956,"BOONEVILLE, AR, United States","Booneville, Logan County, Arkansas, 72927, United States",35.140093,-93.9215909
418,AR,BRADFORD,254,"BRADFORD, AR, United States","Bradford, White County, Arkansas, United States",35.4206403,-91.4535470084611
419,AR,BRANCH,1497,"BRANCH, AR, United States","Branch, Franklin County, Arkansas, United States",35.30927415,-93.95435669650212
420,AR,BRINKLEY,831063,"BRINKLEY, AR, United States","Brinkley, Monroe County, Arkansas, 72021, United States",34.8878719,-91.1945688
421,AR,BROOKLAND,28174,"BROOKLAND, AR, United States","Brookland, Craighead County, Arkansas, 72417, United States",35.900073,-90.5820534
422,AR,BRYANT,2967775,"BRYANT, AR, United States","Bryant, Saline County, Arkansas, 72022, United States",34.5959265,-92.4890469
423,AR,BULL SHOALS,20405,"BULL SHOALS, AR, United States","Bull Shoals, Marion County, Arkansas, 72619, United States",36.383956,-92.5815527
424,AR,BUREN,12228,"BUREN, AR, United States","Van Buren County, Arkansas, United States",35.5759086,-92.4916144
425,AR,CABOT,1973790,"CABOT, AR, United States","Cabot, Lonoke County, Arkansas, 72023, United States",34.974532,-92.0165336
426,AR,CALICO ROCK,3193209,"CALICO ROCK, AR, United States","Calico Rock, Izard County, Arkansas, United States",36.1195143,-92.1359867
427,AR,CAMDEN,7444331,"CAMDEN, AR, United States","Camden, Ouachita County, Arkansas, 71701, United States",33.5845582,-92.8343294
428,AR,CARLISLE,624449,"CARLISLE, AR, United States","Carlisle, Fayette County, West Virginia, 25917, United States",37.9612226,-81.1803812
429,AR,CAVE CITY,815116,"CAVE CITY, AR, United States","Cave City, Sharp County, Arkansas, United States",35.9469741,-91.5511429
430,AR,CAVE SPRINGS,8059,"CAVE SPRINGS, AR, United States","Cave Springs, Benton County, Arkansas, 72718, United States",36.2634109,-94.2318728
431,AR,CENTERTON,57983,"CENTERTON, AR, United States","Centerton, Benton County, Arkansas, 72719, United States",36.3652679,-94.2886875
432,AR,CHARLESTON,982799,"CHARLESTON, AR, United States","Charleston, Kanawha County, West Virginia, United States",38.3505995,-81.6332812
433,AR,CHEROKEE VILLAGE,133354,"CHEROKEE VILLAGE, AR, United States","Cherokee Village, Sharp County, Arkansas, United States",36.2978443,-91.515973
434,AR,CLARENDON,128092,"CLARENDON, AR, United States","Clarendon, Monroe County, Arkansas, 72029, United States",34.6944729,-91.3077703
436,AR,CLARKSVILLE,10815727,"CLARKSVILLE, AR, United States","Clarksville, Johnson County, Arkansas, 72830, United States",35.4714724,-93.4665731
437,AR,CLINTON,5548646,"CLINTON, AR, United States","Clinton, Van Buren County, Arkansas, 72031, United States",35.5914666,-92.4604361
438,AR,CONWAY,18248607,"CONWAY, AR, United States","Conway County, Arkansas, United States",35.2521996,-92.6888936
439,AR,CORNING,1533721,"CORNING, AR, United States","Corning, Clay County, Arkansas, United States",36.4083989,-90.5859698
440,AR,CROSSETT,6000222,"CROSSETT, AR, United States","Crossett, Ashley County, Arkansas, 71635, United States",33.1263899,-91.96297
441,AR,DAMASCUS,16689,"DAMASCUS, AR, United States","Damascus, Faulkner County, Arkansas, United States",35.3613795,-92.41464301316265
442,AR,DANVILLE,9914753,"DANVILLE, AR, United States","Danville, Yell County, Arkansas, 72833, United States",35.05838685,-93.37806833873603
443,AR,DARDANELLE,3666527,"DARDANELLE, AR, United States","Dardanelle, Yell County, Arkansas, 72834, United States",35.2231408,-93.1579532
444,AR,DE QUEEN,138529,"DE QUEEN, AR, United States","De Queen, Sevier County, Arkansas, 71832, United States",34.0378916,-94.3413168
446,AR,DE WITT,3940017,"DE WITT, AR, United States","De Witt, Arkansas County, Arkansas, United States",34.2928774,-91.3378987
447,AR,DECATUR,128510,"DECATUR, AR, United States","Decatur, Benton County, Arkansas, 72722, United States",36.340765000000005,-94.45374355046232
448,AR,DEQUEEN,1755573,"DEQUEEN, AR, United States","DeQueen Street, Mena, Polk County, Arkansas, 71953, United States",34.585296,-94.2387083
449,AR,DERMOTT,2376748,"DERMOTT, AR, United States","Dermott, Chicot County, Arkansas, 71638, United States",33.52539,-91.4359538
450,AR,DES ARC,567542,"DES ARC, AR, United States","Des Arc, Prairie County, Arkansas, 72040, United States",34.9770353,-91.4951307
451,AR,DEWITT,552656,"DEWITT, AR, United States","Dewitt, Fayette County, West Virginia, 25846, United States",37.9315016,-81.1264898
452,AR,DIERKS,512230,"DIERKS, AR, United States","Dierks, Howard County, Arkansas, United States",34.12064025,-94.01307277094179
453,AR,DOVER,9103,"DOVER, AR, United States","Dover, Pope County, Arkansas, 72837, United States",35.4004413,-93.1142982
454,AR,DUMAS,3745304,"DUMAS, AR, United States","Dumas, Desha County, Arkansas, 71639, United States",33.8870477,-91.4917899
455,AR,EARLE,4,"EARLE, AR, United States","Earle, Crittenden County, Arkansas, 72331, United States",35.2707245,-90.4656194
456,AR,EAST CAMDEN,2132,"EAST CAMDEN, AR, United States","East Camden, Ouachita County, Arkansas, 71701, United States",33.6078907,-92.7401611
457,AR,EL DORADO,4225957,"EL DORADO, AR, United States","El Dorado, Union County, Arkansas, United States",33.20763,-92.6662674
459,AR,ELDORADO,5896617,"ELDORADO, AR, United States","Eldorado Drive, Pleasant View, Little Rock, Pulaski County, Arkansas, 72212, United States",34.787073,-92.418397
460,AR,ELKINS,1439,"ELKINS, AR, United States","Elkins, Randolph County, West Virginia, 26241, United States",38.925927,-79.8466552
461,AR,ENGLAND,487037,"ENGLAND, AR, United States","England, Lonoke County, Arkansas, United States",34.5442609,-91.9690285
462,AR,EUDORA,1829,"EUDORA, AR, United States","Eudora, Chicot County, Arkansas, 71640, United States",33.1147167,-91.2608555
463,AR,EUREKA SPRINGS,3774650,"EUREKA SPRINGS, AR, United States","Eureka Springs, Carroll County, Arkansas, 72632, United States",36.4000796,-93.7392419
464,AR,FAIRFIELD BAY,451886,"FAIRFIELD BAY, AR, United States","Fairfield Bay, Van Buren County, Arkansas, 72088, United States",35.6052619,-92.2677334
465,AR,FARMINGTON,43999,"FARMINGTON, AR, United States","Farmington, Washington County, Arkansas, United States",36.0420248,-94.2471515
466,AR,FAYETTEVILLE,37058063,"FAYETTEVILLE, AR, United States","Fayetteville, Washington County, Arkansas, 72701, United States",36.0625843,-94.1574328
467,AR,FLIPPIN,548530,"FLIPPIN, AR, United States","Flippin, Marion County, Arkansas, 72634, United States",36.2769948,-92.5954235
468,AR,FORDYCE,3713575,"FORDYCE, AR, United States","Fordyce, Dallas County, Arkansas, 71742, United States",33.8137161,-92.4129303
469,AR,FORREST CITY,1452342,"FORREST CITY, AR, United States","Forrest City, St. Francis County, Arkansas, 72335, United States",35.0081474,-90.7898342
470,AR,FORT SMITH,58108794,"FORT SMITH, AR, United States","Fort Smith, Sebastian County, Arkansas, 72901, United States",35.3872218,-94.4248983
471,AR,FT SMITH,29874,"FT SMITH, AR, United States","Fort Smith, Sebastian County, Arkansas, 72901, United States",35.3872218,-94.4248983
472,AR,FT. SMITH,4570,"FT. SMITH, AR, United States","Fort Smith, Sebastian County, Arkansas, 72901, United States",35.3872218,-94.4248983
473,AR,GARFIELD,20633,"GARFIELD, AR, United States","Garfield, Jackson County, West Virginia, United States",38.9548043,-81.5445683
474,AR,GASSVILLE,702595,"GASSVILLE, AR, United States","Gassville, Baxter County, Arkansas, 72635, United States",36.2831238,-92.4940505
475,AR,GENTRY,231207,"GENTRY, AR, United States","Gentry, Benton County, Arkansas, 72734, United States",36.2675793,-94.4846602
476,AR,GLENWOOD,610901,"GLENWOOD, AR, United States","Glenwood, Pike County, Arkansas, United States",34.3203596,-93.5476148088396
477,AR,GOSNELL,783010,"GOSNELL, AR, United States","Gosnell, Mississippi County, Arkansas, 72319, United States",35.9576203,-89.9710071
478,AR,GOULD,290202,"GOULD, AR, United States","Gould, Lincoln County, Arkansas, 71643, United States",33.985221,-91.5612058
479,AR,GRAVETTE,6321600,"GRAVETTE, AR, United States","Gravette, Benton County, Arkansas, 72736, United States",36.4208054,-94.4526535
480,AR,GREEN FOREST,6294,"GREEN FOREST, AR, United States","Green Forest, Carroll County, Arkansas, 72638, United States",36.33266835,-93.43112076653537
481,AR,GREENBRIAR,3441,"GREENBRIAR, AR, United States","Greenbriar Drive, Pine Bluff, Jefferson County, Arkansas, 71603, United States",34.1886255,-92.008178
482,AR,GREENBRIER,332972,"GREENBRIER, AR, United States","Greenbrier, Faulkner County, Arkansas, 72058, United States",35.2339274,-92.3877837
483,AR,GREENWOOD,793275,"GREENWOOD, AR, United States","Greenwood, Sebastian County, Arkansas, 72936, United States",35.2156489,-94.2557663
484,AR,GREERS FERRY,97572,"GREERS FERRY, AR, United States","Greers Ferry, Cleburne County, Arkansas, 72067, United States",35.5770219,-92.1773746
485,AR,HAMBURG,4635,"HAMBURG, AR, United States","Hamburg, Ashley County, Arkansas, 71646, United States",33.2281757,-91.7976285
486,AR,HAMPTON,878729,"HAMPTON, AR, United States","Hampton, Calhoun County, Arkansas, 71744, United States",33.5380207,-92.4668693
487,AR,HARRISBURG,695421,"HARRISBURG, AR, United States","Harrisburg, Poinsett County, Arkansas, United States",35.5636367,-90.7214154
488,AR,HARRISON,17395922,"HARRISON, AR, United States","Harrison, Boone County, Arkansas, 72601, United States",36.2297936,-93.1076765
489,AR,HATTIEVILLE,1450,"HATTIEVILLE, AR, United States","Hattieville, Conway County, Arkansas, 72063, United States",35.2875814,-92.7868322
490,AR,HAZEN,474134,"HAZEN, AR, United States","Hazen, Prairie County, Arkansas, 72064, United States",34.7813665,-91.5789815
491,AR,HEBER SPRINGS,1243812,"HEBER SPRINGS, AR, United States","Heber Springs, Cleburne County, Arkansas, 72543, United States",35.4914677,-92.03126
492,AR,HELENA,1669852,"HELENA, AR, United States","Helena-West Helena, Phillips County, Arkansas, 72342, United States",34.539412,-90.6155926
493,AR,HENSLEY,29435,"HENSLEY, AR, United States","Hensley, Pulaski County, Arkansas, United States",34.504406,-92.20845564697323
495,AR,HIGHLAND,153097,"HIGHLAND, AR, United States","Highland, Sharp County, Arkansas, United States",36.2759002,-91.5240287
496,AR,HOLIDAY ISLAND,183229,"HOLIDAY ISLAND, AR, United States","Holiday Island, Carroll County, Arkansas, 72613, United States",36.4853478,-93.7321378
497,AR,HOPE,7197636,"HOPE, AR, United States","Hope, Hempstead County, Arkansas, United States",33.6670616,-93.5915665
498,AR,HORATIO,50481,"HORATIO, AR, United States","Horatio, Sevier County, Arkansas, United States",33.9416478,-94.35558586434112
499,AR,HORSESHOE BEND,898,"HORSESHOE BEND, AR, United States","Horseshoe Bend, Izard County, Arkansas, 72512, United States",36.2200685,-91.7474413
500,AR,HOT SPRING,966365,"HOT SPRING, AR, United States","Hot Spring County, Arkansas, United States",34.2956351,-92.9005742
501,AR,HOT SPRINGS,24354826,"HOT SPRINGS, AR, United States","Hot Springs, Garland County, Arkansas, 71901, United States",34.5038393,-93.0552437
502,AR,HOT SPRINGS NATIONAL PARK,610964,"HOT SPRINGS NATIONAL PARK, AR, United States","Hot Springs National Park, Hot Springs, Garland County, Arkansas, 71901, United States",34.51802,-93.0529422
503,AR,HOT SPRINGS VILLAGE,824247,"HOT SPRINGS VILLAGE, AR, United States","Hot Springs Village, Garland County, Arkansas, 71909, United States",34.6720356,-92.9987886
504,AR,HOXIE,48069,"HOXIE, AR, United States","Hoxie, Lawrence County, Arkansas, 72433, United States",36.0504339,-90.9750717
505,AR,HUNTSVILLE,894027,"HUNTSVILLE, AR, United States","Huntsville, Madison County, Arkansas, United States",36.0861871,-93.7413032
506,AR,IMBODEN,13229,"IMBODEN, AR, United States","Imboden, Lawrence County, Arkansas, 72434, United States",36.2025683,-91.1745727
507,AR,JACKSONVILLE,2412513,"JACKSONVILLE, AR, United States","Jacksonville, Pulaski County, Arkansas, United States",34.8662005,-92.1101458
508,AR,JASPER,442435,"JASPER, AR, United States","Jasper, Newton County, Arkansas, United States",36.01705035,-93.1941938725486
509,AR,JOHNSON,35437,"JOHNSON, AR, United States","Johnson County, Arkansas, United States",35.5600697,-93.4550108
510,AR,JONESBORO,55089943,"JONESBORO, AR, United States","Jonesboro, Craighead County, Arkansas, United States",35.8428646,-90.7034522
511,AR,JUDSONIA,14089,"JUDSONIA, AR, United States","Judsonia, White County, Arkansas, United States",35.270085,-91.6398575
512,AR,LAKE CITY,787896,"LAKE CITY, AR, United States","Lake City, Craighead County, Arkansas, 72437, United States",35.8178347,-90.4352475
513,AR,LAKE VILLAGE,6863752,"LAKE VILLAGE, AR, United States","Lake Village, Chicot County, Arkansas, United States",33.3287279,-91.2817806
514,AR,LAMAR,1249,"LAMAR, AR, United States","Lamar, Johnson County, Arkansas, United States",35.440639,-93.3879595
515,AR,LAVACA,2126,"LAVACA, AR, United States","Lavaca, Sebastian County, Arkansas, 72941, United States",35.3361438,-94.1782325
516,AR,LAWRENCE,27640,"LAWRENCE, AR, United States","Lawrence County, Arkansas, United States",36.0078212,-91.1655476
518,AR,LEPANTO,17879,"LEPANTO, AR, United States","Lepanto, Poinsett County, Arkansas, 72354, United States",35.6099726,-90.333123
519,AR,LEWISVILLE,14877,"LEWISVILLE, AR, United States","Lewisville, Lafayette County, Arkansas, 71845, United States",33.3584583,-93.5776771
520,AR,LINCOLN,26,"LINCOLN, AR, United States","Lincoln County, Arkansas, United States",33.9359663,-91.7713274
522,AR,LITTLE ROCK,273105302,"LITTLE ROCK, AR, United States","Little Rock, Pulaski County, Arkansas, 72201-1822, United States",34.7465071,-92.2896267
523,AR,LONDON,226,"LONDON, AR, United States","London, Pope County, Arkansas, 7, United States",35.328973,-93.2529553
524,AR,LONOKE,960882,"LONOKE, AR, United States","Lonoke County, Arkansas, United States",34.7414404,-91.862792
525,AR,LONSDALE,34448,"LONSDALE, AR, United States","Lonsdale, Garland County, Arkansas, 72087, United States",34.5445356,-92.8082249
526,AR,LOUANN,11667,"LOUANN, AR, United States","Louann, Ouachita County, Arkansas, United States",33.3909555,-92.7918283
527,AR,LOWELL,739929,"LOWELL, AR, United States","Lowell, Benton County, Arkansas, 72746, United States",36.2553543,-94.1307587
528,AR,MABELVALE,23290,"MABELVALE, AR, United States","Mabelvale, Little Rock, Pulaski County, Arkansas, 722210, United States",34.6550928,-92.3865432
529,AR,MAGNOLIA,10217536,"MAGNOLIA, AR, United States","Magnolia, Columbia County, Arkansas, 71754, United States",33.2670725,-93.2393341
530,AR,MALVERN,2203142,"MALVERN, AR, United States","Malvern, Hot Spring County, Arkansas, 72104, United States",34.3623149,-92.8129463
531,AR,MAMMOTH SPRING,156084,"MAMMOTH SPRING, AR, United States","Mammoth Spring, Fulton County, Arkansas, United States",36.48819625,-91.55594140609556
532,AR,MANILA,904695,"MANILA, AR, United States","Manila, Mississippi County, Arkansas, United States",35.8800733,-90.1670393
533,AR,MANKATO,2640120,"MANKATO, AR, United States","Mankato Drive, Cherokee Village, Fulton County, Arkansas, United States",36.3156412,-91.598665
534,AR,MANSFIELD,435,"MANSFIELD, AR, United States","Mansfield, Scott County, Arkansas, 72902, United States",35.0597255,-94.2488561
535,AR,MARIANNA,804598,"MARIANNA, AR, United States","Marianna, Lee County, Arkansas, United States",34.7737082,-90.7576112
536,AR,MARION,1737197,"MARION, AR, United States","Marion County, Arkansas, United States",36.2378521,-92.6999559
537,AR,MARKED TREE,842571,"MARKED TREE, AR, United States","Marked Tree, Poinsett County, Arkansas, 72365, United States",35.5303908,-90.417473
538,AR,MARMADUKE,2391,"MARMADUKE, AR, United States","Marmaduke, Greene County, Arkansas, 72443, United States",36.1883295,-90.3854641
539,AR,MARSHALL,1912724,"MARSHALL, AR, United States","Marshall, Searcy County, Arkansas, 72650, United States",35.9089643,-92.6312746
540,AR,MAUMELLE,842486,"MAUMELLE, AR, United States","Maumelle, Pulaski County, Arkansas, 72113, United States",34.856613,-92.4056858
541,AR,MAYFLOWER,41167,"MAYFLOWER, AR, United States","Mayflower, Faulkner County, Arkansas, 72106, United States",34.9570325,-92.4273785
543,AR,MCCRORY,840957,"MCCRORY, AR, United States","McCrory, Woodruff County, Arkansas, United States",35.2561979,-91.2001246
544,AR,MCGEHEE,4487100,"MCGEHEE, AR, United States","McGehee, Desha County, Arkansas, 71654, United States",33.6294189,-91.399277
545,AR,MCRAE,1717,"MCRAE, AR, United States","McRae, White County, Arkansas, 72102, United States",35.1137095,-91.8217004
546,AR,MELBOURNE,673646,"MELBOURNE, AR, United States","Melbourne, Izard County, Arkansas, 72556, United States",36.0595148,-91.9084819
547,AR,MENA,11915155,"MENA, AR, United States","Mena, Polk County, Arkansas, United States",34.5862171,-94.2396554
548,AR,MISSION,45766,"MISSION, AR, United States","Mission Heights, Fayetteville, Washington County, Arkansas, United States",36.0857574,-94.13140959882787
549,AR,MONETTE,541460,"MONETTE, AR, United States","Monette, Craighead County, Arkansas, 72447, United States",35.8900257,-90.3451809
550,AR,MONTICELLO,12613623,"MONTICELLO, AR, United States","Monticello, Drew County, Arkansas, United States",33.6293427,-91.7912327
551,AR,MORRILTON,5645863,"MORRILTON, AR, United States","Morrilton, Conway County, Arkansas, 72110, United States",35.1509173,-92.7440538
553,AR,MOUNT IDA,708470,"MOUNT IDA, AR, United States","Mount Ida, Montgomery County, Arkansas, United States",34.5544099,-93.6327926
554,AR,MOUNTAIN HOME,26090737,"MOUNTAIN HOME, AR, United States","Mountain Home, Baxter County, Arkansas, 72653, United States",36.3361391,-92.3801187
555,AR,MOUNTAIN VIEW,827051,"MOUNTAIN VIEW, AR, United States","Mountain View, Stone County, Arkansas, United States",35.8684075,-92.1176521
556,AR,MT. IDA,185618,"MT. IDA, AR, United States","Mount Ida, Montgomery County, Arkansas, United States",34.5544099,-93.6327926
557,AR,MTN HOME,25657,"MTN HOME, AR, United States","Mountain Home, Baxter County, Arkansas, 72653, United States",36.3361391,-92.3801187
558,AR,MULBERRY,6470,"MULBERRY, AR, United States","Mulberry, Crawford County, Arkansas, United States",35.5006417,-94.0515919
559,AR,MURFREESBORO,515686,"MURFREESBORO, AR, United States","Murfreesboro, Pike County, Arkansas, 71958, United States",34.0623308,-93.6899049
560,AR,N LITTLE ROCK,154455,"N LITTLE ROCK, AR, United States","North Little Rock, Pulaski County, Arkansas, United States",34.769536,-92.2670941
561,AR,NASHVILLE,5350895,"NASHVILLE, AR, United States","Nashville, Howard County, Arkansas, 71852, United States",33.9456692,-93.847129
562,AR,NEWARK,29704,"NEWARK, AR, United States","Newark, Independence County, Arkansas, 72562, United States",35.7008914,-91.4450306
563,AR,NEWPORT,1746897,"NEWPORT, AR, United States","Newport, Jackson County, Arkansas, United States",35.608376,-91.2688024
564,AR,NORMAN,5648,"NORMAN, AR, United States","Norman, Montgomery County, Arkansas, 71960, United States",34.4550997,-93.6801914
565,AR,NORTH LITTLE ROCK,12532662,"NORTH LITTLE ROCK, AR, United States","North Little Rock, Pulaski County, Arkansas, United States",34.769536,-92.2670941
566,AR,OSCEOLA,1410308,"OSCEOLA, AR, United States","Osceola, Mississippi County, Arkansas, 72370, United States",35.7050778,-89.969532
567,AR,OZARK,4461770,"OZARK, AR, United States","Ozark, Franklin County, Arkansas, 72949, United States",35.4870295,-93.8276965
568,AR,PARAGOULD,15014552,"PARAGOULD, AR, United States","Paragould, Greene County, Arkansas, United States",36.0584021,-90.4973286
569,AR,PARIS,3613946,"PARIS, AR, United States","Paris, Logan County, Arkansas, 72855, United States",35.2920325,-93.7299173
570,AR,PEA RIDGE,71621,"PEA RIDGE, AR, United States","Pea Ridge, Benton County, Arkansas, 72751, United States",36.4515042,-94.1162147
571,AR,PEARCY,28478,"PEARCY, AR, United States","Pearcy, Garland County, Arkansas, United States",34.4287024,-93.2899078
572,AR,PERRYVILLE,32715,"PERRYVILLE, AR, United States","Perryville, Perry County, Arkansas, United States",35.0087601,-92.80277707754558
573,AR,PIGGOTT,4978708,"PIGGOTT, AR, United States","Piggott, Clay County, Arkansas, 72454, United States",36.382839,-90.1906542
574,AR,PINE BLUFF,14762615,"PINE BLUFF, AR, United States","Pine Bluff, Jefferson County, Arkansas, 71601, United States",34.2157064,-92.0140402
575,AR,POCAHONTAS,6326413,"POCAHONTAS, AR, United States","Pocahontas, Randolph County, Arkansas, 72455, United States",36.2612154,-90.9711021
576,AR,POLLARD,1022,"POLLARD, AR, United States","Pollard, Clay County, Arkansas, United States",36.4308933,-90.2684348
577,AR,PORTIA,34411,"PORTIA, AR, United States","Portia, Lawrence County, Arkansas, 72457, United States",36.0864591,-91.0673461
578,AR,PRAIRIE GROVE,654881,"PRAIRIE GROVE, AR, United States","Prairie Grove, Washington County, Arkansas, 72753, United States",35.9774334,-94.3137353
579,AR,PRESCOTT,853315,"PRESCOTT, AR, United States","Prescott, Nevada County, Arkansas, 71857, United States",33.8026107,-93.3810057
580,AR,PRIM,894,"PRIM, AR, United States","Prim, Cleburne County, Arkansas, 72130, United States",35.6939653,-92.1084844
581,AR,PROCTOR,4953,"PROCTOR, AR, United States","Proctor, Crittenden County, Arkansas, United States",35.0950918,-90.3734326
582,AR,QUITMAN,13920,"QUITMAN, AR, United States","Quitman, Cleburne County, Arkansas, United States",35.3826422,-92.2150415
583,AR,RATCLIFF,727417,"RATCLIFF, AR, United States","Ratcliff, Logan County, Arkansas, United States",35.30376175,-93.88966047080804
584,AR,RECTOR,478779,"RECTOR, AR, United States","Rector, Clay County, Arkansas, 72461, United States",36.2631185,-90.2926008
585,AR,REDFIELD,208,"REDFIELD, AR, United States","Redfield, Jefferson County, Arkansas, 72132, United States",34.4450465,-92.1842971
586,AR,ROGERS,33523491,"ROGERS, AR, United States","Rogers, Benton County, Arkansas, United States",36.3320197,-94.1185366
587,AR,RUDY,30677,"RUDY, AR, United States","Rudy, Crawford County, Arkansas, 72952, United States",35.53043565,-94.23551040471477
588,AR,RUSSELLVILLE,11089070,"RUSSELLVILLE, AR, United States","Russellville, Pope County, Arkansas, United States",35.2784173,-93.1337856
589,AR,SALEM,5014671,"SALEM, AR, United States","Salem, Fulton County, Arkansas, 72576, United States",36.3711104,-91.8270949
590,AR,SALINE,51654,"SALINE, AR, United States","Saline County, Arkansas, United States",34.6021249,-92.6542869
591,AR,SEARCY,21201879,"SEARCY, AR, United States","Searcy County, Arkansas, United States",35.9018987,-92.7098744
592,AR,SHERIDAN,995978,"SHERIDAN, AR, United States","Sheridan, Grant County, Arkansas, United States",34.3070406,-92.4012654
593,AR,SHERWOOD,556646,"SHERWOOD, AR, United States","Sherwood, Pulaski County, Arkansas, 72120, United States",34.8150907,-92.2243153
594,AR,SHIRLEY,12129,"SHIRLEY, AR, United States","Shirley, Van Buren County, Arkansas, 72153, United States",35.6561884,-92.3193224
596,AR,SILOAM SPRINGS,1454866,"SILOAM SPRINGS, AR, United States","Siloam Springs, Benton County, Arkansas, 72761-2755, United States",36.1881365,-94.5404962
597,AR,SMACKOVER,50648,"SMACKOVER, AR, United States","Smackover, Union County, Arkansas, 71762, United States",33.3648455,-92.7248822
598,AR,SPARKMAN,3401,"SPARKMAN, AR, United States","Sparkman, Dallas County, Arkansas, 71763, United States",33.9178202,-92.8468894
599,AR,SPRINGDALE,40041722,"SPRINGDALE, AR, United States","Springdale, Washington County, Arkansas, United States",36.1867442,-94.1288142
600,AR,STAMPS,676348,"STAMPS, AR, United States","Stamps, Lafayette County, Arkansas, 71860, United States",33.3654024,-93.4951758
601,AR,STAR CITY,1568701,"STAR CITY, AR, United States","Star City, Lincoln County, Arkansas, 71667, United States",33.9428794,-91.8434668
602,AR,STUTTGART,866788,"STUTTGART, AR, United States","Stuttgart, Arkansas County, Arkansas, 72160, United States",34.5003748,-91.5526281
603,AR,TEXARKANA,2851345,"TEXARKANA, AR, United States","Texarkana, Miller County, Arkansas, 71854, United States",33.4254259,-94.0430937
604,AR,TONTITOWN,158948,"TONTITOWN, AR, United States","Tontitown, Washington County, Arkansas, 72770, United States",36.1618301,-94.23962037791347
605,AR,TRUMANN,520147,"TRUMANN, AR, United States","Trumann, Poinsett County, Arkansas, United States",35.675279,-90.517369
606,AR,TUCKERMAN,1510,"TUCKERMAN, AR, United States","Tuckerman, Jackson County, Arkansas, 72473, United States",35.7310015,-91.1994584
607,AR,VAN BUREN,8725357,"VAN BUREN, AR, United States","Van Buren County, Arkansas, United States",35.5759086,-92.4916144
608,AR,VILLA PARK,2635,"VILLA PARK, AR, United States","South Park Villa Trailer Court, Larkmead, Wood County, West Virginia, 26101, United States",39.2544306,-81.5929261
609,AR,VILONIA,63289,"VILONIA, AR, United States","Vilonia, Faulkner County, Arkansas, 72173, United States",35.083975,-92.2079277
610,AR,VIOLA,3057,"VIOLA, AR, United States","Viola, Marshall County, West Virginia, United States",39.9650753,-80.5897976
611,AR,WALDRON,4330616,"WALDRON, AR, United States","Waldron, Scott County, Arkansas, 72958, United States",34.90336765,-94.09940678314976
612,AR,WALNUT RIDGE,4863658,"WALNUT RIDGE, AR, United States","Walnut Ridge, Lawrence County, Arkansas, 72476, United States",36.0680241,-90.9561004
613,AR,WARD,2763,"WARD, AR, United States","Ward, Lonoke County, Arkansas, 72007, United States",35.0303648,-91.950421
614,AR,WARREN,5124267,"WARREN, AR, United States","Warren, Bradley County, Arkansas, United States",33.6126086,-92.0645831
615,AR,WEST FORK,50188,"WEST FORK, AR, United States","West Fork, Washington County, Arkansas, 72774, United States",35.9242477,-94.1885387
616,AR,WEST HELENA,152853,"WEST HELENA, AR, United States","West Helena, Helena-West Helena, Phillips County, Arkansas, 72390, United States",34.5506573,-90.6417741
617,AR,WEST MEMPHIS,10387255,"WEST MEMPHIS, AR, United States","West Memphis, Crittenden County, Arkansas, United States",35.1464797,-90.1845388
618,AR,WHITE HALL,1211977,"WHITE HALL, AR, United States","White Hall, Jefferson County, Arkansas, 71602, United States",34.2752744,-92.0917001
619,AR,WICHITA,611,"WICHITA, AR, United States","North Wichita Circle, Cherokee Village, Sharp County, Arkansas, 72529, United States",36.290962,-91.521181
620,AR,WILBURN,442,"WILBURN, AR, United States","Wilburn, Cleburne County, Arkansas, 72179, United States",35.5073013,-91.8882008
621,AR,WINFIELD,521029,"WINFIELD, AR, United States","Winfield, Putnam County, West Virginia, United States",38.5331448,-81.8934676
622,AR,WINSLOW,260,"WINSLOW, AR, United States","Winslow, Washington County, Arkansas, 72959, United States",35.8001035,-94.1325842
623,AR,WINTHROP,8032,"WINTHROP, AR, United States","Winthrop, Little River County, Arkansas, United States",33.8307964,-94.3526238
624,AR,WYNNE,2108521,"WYNNE, AR, United States","Wynne, Cross County, Arkansas, 72396, United States",35.224533,-90.7867798
625,AR,YELLVILLE,626693,"YELLVILLE, AR, United States","Yellville, Marion County, Arkansas, 72687, United States",36.2261815,-92.6848876
626,AS,BAKERSFIELD,27075,"BAKERSFIELD, AS, United States","Bakersfield, Polk County, Texas, United States",30.745588,-94.722247
627,AS,BEVERLY HILLS,261443,"BEVERLY HILLS, AS, United States","Beverly Hills, Apache County, Arizona, United States",34.5827133,-109.0562873
628,AS,BURBANK,10786,"BURBANK, AS, United States","Burbank, San Antonio, Bexar County, Texas, 78204, United States",29.407143,-98.5095924
629,AS,CALIFORNIA CITY,95285,"CALIFORNIA CITY, AS, United States","California City, Kern County, California, United States",35.125801,-117.9859038
630,AS,CARLSBAD,26234,"CARLSBAD, AS, United States","Carlsbad, San Luis Obispo County, California, United States",35.274734,-119.898157
631,AS,CARSON,103288,"CARSON, AS, United States","Carson, Houston, Harris County, Texas, 77061, United States",29.66515,-95.259239
632,AS,CHINO HILLS,435,"CHINO HILLS, AS, United States","Chino Hills, San Bernardino County, California, United States",33.9926803,-117.760056
633,AS,CUMBERLAND,107499,"CUMBERLAND, AS, United States","Cumberland, Nashville-Davidson, Davidson County, Tennessee, 37214, United States",36.1929877,-86.6723704
634,AS,ELLISVILLE,23213,"ELLISVILLE, AS, United States","Ellisville, Saint Louis County, Missouri, United States",38.5946373,-90.584838
635,AS,FLORISSANT,7922,"FLORISSANT, AS, United States","Florissant, Inner Northwest, Las Vegas, Clark County, Nevada, 89128, United States",36.200748,-115.250801
636,AS,FULLERTON,2968,"FULLERTON, AS, United States","Fullerton, Beech, Redford Township, Wayne County, Michigan, 48239, United States",42.378203,-83.29458
637,AS,GLENDALE,189035,"GLENDALE, AS, United States","Glendale, Liberty, Liberty County, Texas, 77575, United States",30.0846169,-94.7623543
638,AS,HAWTHORNE,21233,"HAWTHORNE, AS, United States","Hawthorne, Pasadena, Harris County, Texas, 77506, United States",29.6927442,-95.2072392
639,AS,HOPE VALLEY,46038,"HOPE VALLEY, AS, United States","Hope Valley, Hopkinton, South County, Rhode Island, 02832, United States",41.5075992,-71.7161824
640,AS,LOS ANGELES,359650,"LOS ANGELES, AS, United States","Los Angeles, Glenn Heights, Ellis County, Texas, 75154, United States",32.534063,-96.85186
641,AS,MIAMI  FLORIDA,35638,"MIAMI  FLORIDA, AS, United States","Miami, Miami-Dade County, Florida, United States",25.7741728,-80.19362
642,AS,MORRO BAY,69916,"MORRO BAY, AS, United States","Morro Bay, Myford, Lower Peters Canyon, Irvine, Orange County, California, 92602, United States",33.7317046,-117.7699063
643,AS,NAPA,35344,"NAPA, AS, United States","Napa Samoa, Tafuna, Tualauta County, Western District, American Samoa, United States",-14.32289025,-170.72201571989854
644,AS,NORTH HOLLYWOOD,3565,"NORTH HOLLYWOOD, AS, United States","North Hollywood, Muncie, Delaware County, Indiana, 47304, United States",40.23335,-85.408648
645,AS,ORANGE,104152,"ORANGE, AS, United States","Orange, Houston, Harris County, Texas, 77026:77028, United States",29.7742659,-95.3341066
646,AS,PAGO PAGO,4924525,"PAGO PAGO, AS, United States","Pago Pago, Maoptasi County, Eastern District, American Samoa, United States",-14.2754786,-170.7048298
647,AS,PASADENA,43964,"PASADENA, AS, United States","Pasadena, Lower Peters Canyon, Irvine, Orange County, California, 92602, United States",33.731374,-117.7634804
648,AS,POWAY,16477,"POWAY, AS, United States","Poway, Lower Peters Canyon, Irvine, Orange County, California, 92602, United States",33.7332721,-117.762885
649,AS,ROHNERT PARK,38817,"ROHNERT PARK, AS, United States","Rohnert Park, Sonoma County, California, United States",38.3396367,-122.7010984
650,AS,SAN CLEMENTE,40264,"SAN CLEMENTE, AS, United States","San Clemente, Sharyland Plantation, Mission, Hidalgo County, Texas, United States",26.1713514,-98.2948584
651,AS,SAN DIEGO,81594,"SAN DIEGO, AS, United States","San Diego, Mission Ridge, San Antonio, Bexar County, Texas, 78248, United States",29.593651,-98.503662
652,AS,SAN FRANCISCO,6238,"SAN FRANCISCO, AS, United States","San Francisco, Edinburg, Hidalgo County, Texas, 78540, United States",26.313058,-98.2090398
653,AS,SAN MARCOS,69720,"SAN MARCOS, AS, United States","San Marcos, Cherokee County, Texas, 75757, United States",32.1110349,-95.3983283
654,AS,SANTA CRUZ,6717,"SANTA CRUZ, AS, United States","Santa Cruz, Spanish Lakes Mobile Home Park, Sarasota County, Florida, 34274, United States",27.1443633,-82.4582541
655,AS,SOUTH SAN FRANCISCO,22285,"SOUTH SAN FRANCISCO, AS, United States","South San Francisco, San Mateo County, California, United States",37.6535403,-122.4168664
656,AS,ST LOUIS,84005,"ST LOUIS, AS, United States","Saint Louis, Gillespie County, Texas, 78624, United States",30.26852,-98.853303
657,AS,UPLAND,46402,"UPLAND, AS, United States","Upland, Montgomery County, Texas, 77318, United States",30.464912,-95.538112
658,AS,WALNUT,9110,"WALNUT, AS, United States","Walnut, Downtown Mount Pleasant, Mount Pleasant, Isabella County, Michigan, 48858, United States",43.6032327,-84.7813976
659,AS,WEST HILLS,802583,"WEST HILLS, AS, United States","West Hills, East Franklin Township, Armstrong County, Pennsylvania, United States",40.8242309,-79.543101
660,AS,WESTERLY,20327,"WESTERLY, AS, United States","Westerly, Aliso Viejo, Orange County, California, 92656-2601, United States",33.5835944,-117.7213981
661,AS,WESTMINSTER,30000,"WESTMINSTER, AS, United States","Westminster, Wichita, Sedgwick County, Kansas, 67217, United States",37.6038773,-97.3730226
662,AS,XENIA OH,529,"XENIA OH, AS, United States","Xenia, Monroe, Lemon Township, Butler County, Ohio, 45050, United States",39.4482666,-84.3728636
663,AZ,AHWATUKEE,11457,"AHWATUKEE, AZ, United States","Ahwatukee Foothills, Phoenix, Maricopa County, Arizona, 85048-8564, United States",33.3194186,-112.0312962
664,AZ,AJO,756201,"AJO, AZ, United States","Ajo, Pima County, Arizona, 85321, United States",32.3933515,-112.90272302970297
665,AZ,ANTHEM,1201098,"ANTHEM, AZ, United States","Anthem, Maricopa County, Arizona, United States",33.857492,-112.11359410473517
666,AZ,APACHE JCT,4058,"APACHE JCT, AZ, United States","Apache, Springerville, Apache County, Arizona, 85925, United States",34.1343522,-109.2778418
667,AZ,APACHE JUNCTION,3322864,"APACHE JUNCTION, AZ, United States","Apache Junction, Pinal County, Arizona, 85220, United States",33.4150485,-111.549577
668,AZ,ARIVACA,1069,"ARIVACA, AZ, United States","Arivaca, Pima County, Arizona, 85601, United States",31.5769832,-111.3306751
669,AZ,ARIZONA CITY,12,"ARIZONA CITY, AZ, United States","Arizona City, Pinal County, Arizona, United States",32.748400000000004,-111.67590514853674
670,AZ,AVONDALE,2196701,"AVONDALE, AZ, United States","Avondale, Maricopa County, Arizona, 85323, United States",33.4355977,-112.349602
671,AZ,AZ - ARIZONA,71606,"AZ - ARIZONA, AZ, United States","41883 E. Torbalita Trail, Marana, AZ, Pinal County, Arizona, United States",32.54108225,-111.12036381614175
672,AZ,BENSON,4128483,"BENSON, AZ, United States","Benson, Cochise County, Arizona, United States",31.9678611,-110.2945174
673,AZ,BISBEE,5173481,"BISBEE, AZ, United States","Bisbee, Cochise County, Arizona, 85603, United States",31.4481547,-109.928408
674,AZ,BLACK CANYON CITY,16273,"BLACK CANYON CITY, AZ, United States","Black Canyon City, Yavapai County, Arizona, 85324, United States",34.0708665,-112.1507149
675,AZ,BUCKEYE,643987,"BUCKEYE, AZ, United States","Buckeye, Maricopa County, Arizona, United States",33.3703197,-112.583776
676,AZ,BULLHEAD,41051,"BULLHEAD, AZ, United States","Bullhead, Mohave County, Arizona, United States",35.9018937,-114.0572421
677,AZ,BULLHEAD CITY,13436072,"BULLHEAD CITY, AZ, United States","Bullhead City, Mohave County, Arizona, 89029, United States",35.1477774,-114.5682983
678,AZ,CAMP VERDE,1252766,"CAMP VERDE, AZ, United States","Camp Verde, Yavapai County, Arizona, 86322, United States",34.5636358,-111.854317
679,AZ,CAREFREE,136593,"CAREFREE, AZ, United States","Carefree, Maricopa County, Arizona, United States",33.8222611,-111.918203
681,AZ,CASA GRANDE,4705703,"CASA GRANDE, AZ, United States","Casa Grande, Pinal County, Arizona, 86122, United States",32.8795022,-111.757352
682,AZ,CATALINA,238,"CATALINA, AZ, United States","Catalina, Pima County, Arizona, 85739, United States",32.482131,-110.90019740489195
683,AZ,CAVE CREEK,614364,"CAVE CREEK, AZ, United States","Cave Creek, Maricopa County, Arizona, United States",33.8333333,-111.9508333
686,AZ,CHANDLER,34009501,"CHANDLER, AZ, United States","Chandler, Maricopa County, Arizona, United States",33.3061605,-111.84125
687,AZ,CHINLE,19100608,"CHINLE, AZ, United States","Chinle, Apache County, Arizona, United States",36.150143400000005,-109.56706853699023
688,AZ,CHINO VALLEY,89912,"CHINO VALLEY, AZ, United States","Chino Valley, Yavapai County, Arizona, 86323, United States",34.78357,-112.43035972408359
689,AZ,COLORADO CITY,107702,"COLORADO CITY, AZ, United States","Colorado City, Mohave County, Arizona, 86021, United States",36.9902621,-112.97577
690,AZ,CONCHO,7211,"CONCHO, AZ, United States","Concho, Apache County, Arizona, 88592, United States",34.4753132,-109.6059405
691,AZ,COOLIDGE,82145,"COOLIDGE, AZ, United States","Coolidge, Pinal County, Arizona, 85128, United States",32.977839,-111.517624
692,AZ,CORNVILLE,1101,"CORNVILLE, AZ, United States","Cornville, Yavapai County, Arizona, United States",34.7395165,-111.9058275625
693,AZ,COTTONWOOD,13359312,"COTTONWOOD, AZ, United States","Cottonwood, Yavapai County, Arizona, 86326, United States",34.739489,-112.009793
694,AZ,DAYTON,205004,"DAYTON, AZ, United States","North Dayton Street, Encanto, Phoenix, Maricopa County, Arizona, 85006, United States",33.4711979,-112.059642
695,AZ,DEWEY,143949,"DEWEY, AZ, United States","Dewey, Prescott Valley, Yavapai County, Arizona, 86329, United States",34.5300253,-112.2412739
696,AZ,DOUGLAS,3388092,"DOUGLAS, AZ, United States","Douglas, Cochise County, Arizona, 85607, United States",31.3471741,-109.5383567
697,AZ,DUNCAN,7160,"DUNCAN, AZ, United States","Duncan, Greenlee County, Arizona, United States",32.7151776,-109.1004486
698,AZ,EAGAR,47622,"EAGAR, AZ, United States","Eagar, Apache County, Arizona, 85925, United States",34.1111581,-109.291475
699,AZ,EL MIRAGE,18565,"EL MIRAGE, AZ, United States","El Mirage, Maricopa County, Arizona, 85335, United States",33.6130338,-112.3244866
700,AZ,ELFRIDA,2236,"ELFRIDA, AZ, United States","Elfrida, Cochise County, Arizona, United States",31.6853714,-109.6870138
701,AZ,ELOY,161580,"ELOY, AZ, United States","Eloy, Pinal County, Arizona, United States",32.7551703,-111.5534932
703,AZ,FLAGSTAFF,43019397,"FLAGSTAFF, AZ, United States","Flagstaff, Coconino County, Arizona, 86001, United States",35.1987522,-111.6518229
704,AZ,FLORENCE,152857,"FLORENCE, AZ, United States","Florence, Pinal County, Arizona, 85132, United States",33.0314508,-111.3873431
705,AZ,FOREST LAKES,1361,"FOREST LAKES, AZ, United States","Forest Lakes, Coconino County, Arizona, United States",34.34438285,-110.82314153839765
706,AZ,FORT DEFIANCE,13030663,"FORT DEFIANCE, AZ, United States","Fort Defiance, Apache County, Arizona, 86504, United States",35.7531285,-109.06920941705337
707,AZ,FORT MCDOWELL,380539,"FORT MCDOWELL, AZ, United States","Fort McDowell, Maricopa County, Arizona, United States",33.6367105,-111.6745826
708,AZ,FORT MOHAVE,5346420,"FORT MOHAVE, AZ, United States","Fort Mojave Indian Reservation, Laughlin, Bullhead City, Mohave County, Arizona, United States",34.99370055,-114.61869201067152
709,AZ,FORT SMITH,8067,"FORT SMITH, AZ, United States","Fort Huachuca Housing Office, Smith Avenue, West Pershing Plaza, Sierra Vista, Cochise County, Arizona, 85670, United States",31.55479375,-110.353698315327
710,AZ,FOUNTAIN HILLS,2498620,"FOUNTAIN HILLS, AZ, United States","Fountain Hills, Maricopa County, Arizona, 85268, United States",33.6117105,-111.7173613
711,AZ,FOUNTAIN HLS,6042,"FOUNTAIN HLS, AZ, United States","Fountain Hills, Maricopa County, Arizona, 85268, United States",33.6117105,-111.7173613
712,AZ,GANADO,4509060,"GANADO, AZ, United States","Ganado, Ganado / Lkaahnteel, Apache County, Arizona, United States",35.6992764,-109.54982194820789
713,AZ,GILA BEND,3546,"GILA BEND, AZ, United States","Gila Bend, Maricopa County, Arizona, United States",32.9478267,-112.7168239
714,AZ,GILBERT,18324305,"GILBERT, AZ, United States","Gilbert, Maricopa County, Arizona, 85269, United States",33.3527632,-111.7890373
716,AZ,GLENDALE,19745862,"GLENDALE, AZ, United States","Glendale, Maricopa County, Arizona, 85301, United States",33.5386858,-112.1859941
717,AZ,GLOBE,8219505,"GLOBE, AZ, United States","Globe, Gila County, Arizona, 85501, United States",33.3959623,-110.787134
718,AZ,GOLD CANYON,705783,"GOLD CANYON, AZ, United States","Gold Canyon, Apache Junction, Pinal County, Arizona, 85218, United States",33.3710715,-111.42618498017515
719,AZ,GOLDEN VALLEY,257730,"GOLDEN VALLEY, AZ, United States","Golden Valley, Mohave County, Arizona, United States",35.2216745,-114.21755430809858
721,AZ,GOODYEAR,4295891,"GOODYEAR, AZ, United States","Goodyear, Maricopa County, Arizona, 85395, United States",33.4353672,-112.3576
722,AZ,GOODYEAR AZ,12999,"GOODYEAR AZ, AZ, United States","Goodyear, Maricopa County, Arizona, 85395, United States",33.4353672,-112.3576
723,AZ,GREEN VALLEY,6628491,"GREEN VALLEY, AZ, United States","Green Valley, Pima County, Arizona, United States",31.8484548,-111.02659450731726
724,AZ,HAPPY JACK,1593,"HAPPY JACK, AZ, United States","Happy Jack, Coconino County, Arizona, United States",34.7428521,-111.4093051
725,AZ,HEREFORD,62090,"HEREFORD, AZ, United States","Hereford, Cochise County, Arizona, United States",31.4384325,-110.0978554
726,AZ,HIGLEY,10955,"HIGLEY, AZ, United States","Higley Groves West - Morrison Ranch, Gilbert, Maricopa County, Arizona, United States",33.3534005,-111.72644385275574
727,AZ,HOLBROOK,41639,"HOLBROOK, AZ, United States","Holbrook, Navajo County, Arizona, United States",34.9037063,-110.159316
728,AZ,HUACHUCA CITY,6405,"HUACHUCA CITY, AZ, United States","Huachuca City, Cochise County, Arizona, United States",31.6278703,-110.3339678
729,AZ,JUNCTION,6095,"JUNCTION, AZ, United States","Apache Junction, Pinal County, Arizona, 85220, United States",33.4150485,-111.549577
730,AZ,KAYENTA,4886627,"KAYENTA, AZ, United States","Kayenta, Navajo County, Arizona, United States",36.7218463,-110.253872
731,AZ,KEARNY,74924,"KEARNY, AZ, United States","Kearny, Pinal County, Arizona, 85237, United States",33.0570085,-110.9106656
732,AZ,KINGMAN,29893889,"KINGMAN, AZ, United States","Kingman, Mohave County, Arizona, United States",35.189443,-114.0530065
733,AZ,KIRKLAND,340,"KIRKLAND, AZ, United States","Kirkland, Yavapai County, Arizona, United States",34.4175251,-112.7121218
734,AZ,KYKOTSMOVI,8001,"KYKOTSMOVI, AZ, United States","Kykotsmovi / Kiqotsmovi, Navajo County, Arizona, United States",35.8766568,-110.619002
735,AZ,LAKE HAVASU,292638,"LAKE HAVASU, AZ, United States","Lake Havasu, La Paz County, Arizona, United States",34.4105067,-114.29087205807807
737,AZ,LAKE HAVASU CITY,13039605,"LAKE HAVASU CITY, AZ, United States","Lake Havasu City, Mohave County, Arizona, 86403, United States",34.4838502,-114.3224495
739,AZ,LAKESIDE,1446719,"LAKESIDE, AZ, United States","Lakeside, Pinetop-Lakeside, Navajo County, Arizona, 85929, United States",34.154488,-109.9734405
740,AZ,LAVEEN,550469,"LAVEEN, AZ, United States","Laveen, Phoenix, Maricopa County, Arizona, 85339, United States",33.3618814,-112.1533861
741,AZ,LITCHFIELD PARK,885332,"LITCHFIELD PARK, AZ, United States","Litchfield Park, Maricopa County, Arizona, United States",33.4933796,-112.3581244
742,AZ,LITTLEFIELD,8098,"LITTLEFIELD, AZ, United States","Littlefield, Beaver Dam, Mohave County, Arizona, 86432, United States",36.8871992,-113.9296876
743,AZ,MARANA,1064756,"MARANA, AZ, United States","Marana, Pima County, Arizona, United States",32.4446988,-111.215709
744,AZ,MARICOPA,370072,"MARICOPA, AZ, United States","Maricopa County, Arizona, United States",33.34883,-112.49123
745,AZ,MAYER,59921,"MAYER, AZ, United States","Mayer, Yavapai County, Arizona, United States",34.426387500000004,-112.23672324270557
746,AZ,MESA,218319940,"MESA, AZ, United States","Mesa, Maricopa County, Arizona, United States",33.4151117,-111.8314792
748,AZ,MIAMI,179188,"MIAMI, AZ, United States","Miami, Gila County, Arizona, 85539, United States",33.3994776,-110.87095
749,AZ,MOHAVE VALLEY,572139,"MOHAVE VALLEY, AZ, United States","Mohave Valley, Mohave County, Arizona, United States",35.0527235,-114.57165298708591
750,AZ,MORENCI,120256,"MORENCI, AZ, United States","Morenci, Greenlee County, Arizona, United States",33.0512895,-109.32598
751,AZ,MUNDS PARK,3797,"MUNDS PARK, AZ, United States","Munds Park, Coconino County, Arizona, 86017, United States",34.945574,-111.6401551
752,AZ,NEW RIVER,9354,"NEW RIVER, AZ, United States","New River, Phoenix, Cave Creek, Maricopa County, Arizona, 85080, United States",33.887139250000004,-112.08706829579333
753,AZ,NOGALES,1351332,"NOGALES, AZ, United States","Nogales, Santa Cruz County, Arizona, 85621, United States",31.3402134,-110.9360818
754,AZ,ORACLE,1092,"ORACLE, AZ, United States","Oracle, Pinal County, Arizona, 85623, United States",32.6099702,-110.7651843
755,AZ,ORO VALLEY,6767458,"ORO VALLEY, AZ, United States","Oro Valley, Pima County, Arizona, United States",32.3909071,-110.966488
756,AZ,OVERGAARD,11009,"OVERGAARD, AZ, United States","Overgaard, Navajo County, Arizona, 85933, United States",34.3908717,-110.5531791
757,AZ,PAGE,1611547,"PAGE, AZ, United States","Page, Coconino County, Arizona, 86040-0418, United States",36.9148305,-111.457294
758,AZ,PARADISE VALLEY,961240,"PARADISE VALLEY, AZ, United States","Paradise Valley, Scottsdale, Maricopa County, Arizona, United States",33.5428006,-111.9556001
759,AZ,PARKER,9777772,"PARKER, AZ, United States","Parker, La Paz County, Arizona, United States",34.1498408,-114.2889608
760,AZ,PARKS,2369,"PARKS, AZ, United States","Parks, Coconino County, Arizona, 86018, United States",35.260615,-111.9485469
761,AZ,PATAGONIA,4024,"PATAGONIA, AZ, United States","Patagonia, Santa Cruz County, Arizona, 85624, United States",31.5393138,-110.7563046
762,AZ,PAYSON,1933888,"PAYSON, AZ, United States","Payson, Gila County, Arizona, 85072, United States",34.2406479,-111.3230261
763,AZ,PEARCE,33697,"PEARCE, AZ, United States","Pearce, Cochise County, Arizona, United States",31.9050865,-109.8206232
764,AZ,PEORIA,18323389,"PEORIA, AZ, United States","Peoria, Maricopa County, Arizona, 85345, United States",33.5806115,-112.237294
765,AZ,PERIDOT,7354982,"PERIDOT, AZ, United States","Peridot, Gila County, Arizona, 85542, United States",33.3010895,-110.458534517407
769,AZ,PHOENIX,550968449,"PHOENIX, AZ, United States","Phoenix, Maricopa County, Arizona, United States",33.4484367,-112.0741417
